id,bathrooms,bedrooms,currency,fee,has_photo,pets_allowed,price,price_type,square_feet,cityname,state,latitude,longitude,time
5668640009,1,1,USD,No,Thumbnail,Cats,2195,Monthly,542,Redondo Beach,CA,33.8520,-118.3759,1577360355
5668639818,1.5,3,USD,No,Thumbnail,Cats+Dogs,1250,Monthly,1500,Newport News,VA,37.0867,-76.4941,1577360340
5668639686,2,3,USD,No,Thumbnail,None,1395,Monthly,1650,Raleigh,NC,35.8230,-78.6438,1577360332
5668639659,1,2,USD,No,Thumbnail,Cats+Dogs,1600,Monthly,820,Vacaville,CA,38.3622,-121.9712,1577360330
5668639374,1,1,USD,No,Thumbnail,Cats+Dogs,975,Monthly,624,Albuquerque,NM,35.1038,-106.6110,1577360308
5668639368,1.5,2,USD,No,Thumbnail,Cats+Dogs,1250,Monthly,965,Albuquerque,NM,35.1038,-106.6110,1577360308
5668638765,2,2,USD,No,Thumbnail,None,1600,Monthly,1120,Hampton,VA,37.0451,-76.3664,1577360261
5668638578,2,2,USD,No,Thumbnail,Cats+Dogs,1300,Monthly,947,Lakewood,CO,39.6894,-105.1119,1577360247
5668638476,1,2,USD,No,Thumbnail,Dogs,795,Monthly,600,Charleston,WV,38.3454,-81.6219,1577360239
5668638122,2,2,USD,No,Thumbnail,None,2150,Monthly,1005,Chatsworth,CA,34.2551,-118.5976,1577360204
5668638015,2.5,3,USD,No,Thumbnail,None,1795,Monthly,1522,Alpharetta,GA,34.0718,-84.2525,1577360196
5668637998,3,2,USD,No,Thumbnail,None,3195,Monthly,3077,Marblehead,MA,42.4982,-70.8647,1577360194
5668637809,2,2,USD,No,Thumbnail,None,2395,Monthly,896,Washington,DC,38.9118,-77.0132,1577360182
5668637541,3.5,4,USD,No,Thumbnail,None,7800,Monthly,4650,Scottsdale,AZ,33.5783,-111.8902,1577360165
5668637528,1,3,USD,No,Thumbnail,None,720,Monthly,800,Ames,IA,42.0259,-93.6516,1577360164
5668636381,1.5,2,USD,No,Thumbnail,Cats+Dogs,2000,Monthly,872,Kirkland,WA,47.7046,-122.1989,1577360105
5668636291,1,1,USD,No,Thumbnail,Cats+Dogs,729,Monthly,800,San Antonio,TX,29.4624,-98.5253,1577360099
5668635018,1,1,USD,No,Thumbnail,Cats+Dogs,1045,Monthly,700,Villa Park,IL,41.8787,-87.9798,1577360021
5668634255,3,3,USD,No,Thumbnail,Cats+Dogs,1800,Monthly,1500,Oxford,MS,34.3504,-89.5190,1577359971
5668633909,1,2,USD,No,Thumbnail,Cats+Dogs,1250,Monthly,435,Portland,OR,45.5091,-122.6449,1577359943
5668632975,1,0,USD,No,Thumbnail,Cats+Dogs,1099,Monthly,290,Portland,OR,45.5091,-122.6449,1577359880
5668632369,1,1,USD,No,Thumbnail,None,1060,Monthly,650,Austin,TX,30.3054,-97.7497,1577359827
5668632002,1,1,USD,No,Thumbnail,None,1003,Monthly,797,Round Rock,TX,30.5118,-97.6873,1577359796
5668631854,1,1,USD,No,Thumbnail,None,837,Monthly,444,Austin,TX,30.3054,-97.7497,1577359784
5668631790,1,1,USD,No,Thumbnail,None,1020,Monthly,692,Austin,TX,30.3054,-97.7497,1577359778
5668631784,1,1,USD,No,Thumbnail,None,985,Monthly,693,Austin,TX,30.3054,-97.7497,1577359777
5668631302,1,1,USD,No,Thumbnail,None,1581,Monthly,703,Austin,TX,30.3054,-97.7497,1577359749
5668630952,1,1,USD,No,Thumbnail,None,1090,Monthly,665,Georgetown,TX,30.6505,-97.6809,1577359728
5668630836,2.5,3,USD,No,Thumbnail,Cats+Dogs,3250,Monthly,1525,Ladera Ranch,CA,33.5585,-117.6695,1577359722
5668630485,1,1,USD,No,Thumbnail,None,962,Monthly,532,Austin,TX,30.3054,-97.7497,1577359700
5668630356,2,2,USD,No,Thumbnail,Cats+Dogs,1740,Monthly,1600,West Palm Beach,FL,26.7173,-80.1164,1577359690
5668630131,1,1,USD,No,Thumbnail,None,1722,Monthly,453,Austin,TX,30.3054,-97.7497,1577359671
5668630089,1,1,USD,No,Thumbnail,None,840,Monthly,540,Round Rock,TX,30.5118,-97.6873,1577359669
5668629888,2,2,USD,No,Thumbnail,Cats+Dogs,1590,Monthly,1000,Kansas City,MO,39.0744,-94.5521,1577359654
5668629745,1,1,USD,No,Thumbnail,Cats+Dogs,975,Monthly,615,San Antonio,TX,29.4624,-98.5253,1577359643
5668628689,1,0,USD,No,Thumbnail,Cats+Dogs,895,Monthly,430,Pittsburgh,PA,40.4448,-79.9725,1577359563
5668628058,2.5,3,USD,No,Thumbnail,Cats+Dogs,1695,Monthly,1550,Urbandale,IA,41.6251,-93.7375,1577359518
5668627517,1,1,USD,No,Thumbnail,Cats+Dogs,975,Monthly,650,San Antonio,TX,29.4624,-98.5253,1577359469
5668627160,2,5,USD,No,Thumbnail,None,4500,Monthly,2050,Allston,MA,42.3584,-71.1318,1577359435
5668627095,2.5,3,USD,No,Thumbnail,None,3990,Monthly,1739,San Jose,CA,37.3108,-121.8645,1577359430
5668627084,1,1,USD,No,Thumbnail,None,2300,Monthly,668,Oakland,CA,37.7904,-122.2151,1577359429
5668627015,1,2,USD,No,Thumbnail,None,2550,Monthly,860,Oakland,CA,37.7904,-122.2151,1577359423
5668626906,3,4,USD,No,Thumbnail,None,4950,Monthly,3350,Mission Viejo,CA,33.6042,-117.6526,1577359415
5668626824,1.5,2,USD,No,Thumbnail,Cats+Dogs,4950,Monthly,1200,Berkeley,CA,37.8726,-122.2707,1577359409
5668625752,1,2,USD,No,Thumbnail,None,1225,Monthly,720,Madison,WI,43.0724,-89.4003,1577359335
5668625536,1,1,USD,No,Thumbnail,Cats+Dogs,1025,Monthly,616,Windsor,WI,43.2128,-89.3435,1577359321
5668625042,2,2,USD,No,Thumbnail,Cats+Dogs,2548,Monthly,1391,Sherman Oaks,CA,34.1542,-118.4447,1577359288
5668624921,2,3,USD,No,Thumbnail,Cats+Dogs,1299,Monthly,1119,Concord,NC,35.4047,-80.6098,1577359279
5668624600,1,2,USD,No,Thumbnail,Cats+Dogs,1549,Monthly,431,Arlington,VA,38.8738,-77.1055,1577359252
5668624330,1,2,USD,No,Thumbnail,Cats+Dogs,1905,Monthly,900,Alexandria,VA,38.7999,-77.1072,1577359232
5668624245,2,3,USD,No,Thumbnail,Cats+Dogs,1199,Monthly,1273,Dallas,GA,33.9217,-84.8634,1577359226
5668624242,2,4,USD,No,Thumbnail,Cats,3580,Monthly,2100,Chicago,IL,41.8625,-87.6825,1577359226
5668623348,1,1,USD,No,Thumbnail,Cats+Dogs,495,Monthly,360,Tulsa,OK,36.1160,-95.9281,1577359172
5668622646,1,2,USD,No,Thumbnail,None,650,Monthly,314,Ogden,UT,41.2321,-111.9813,1577359130
5668622445,1,1,USD,No,Thumbnail,Cats+Dogs,973,Monthly,509,Orlando,FL,28.5163,-81.3644,1577359121
5668622093,1,2,USD,No,Thumbnail,Cats+Dogs,2095,Monthly,390,Providence,RI,41.8240,-71.4315,1577359103
5668621164,1,1,USD,No,Thumbnail,Cats+Dogs,750,Monthly,568,Spokane Valley,WA,47.6485,-117.2657,1577359042
5668620432,1,1,USD,No,Thumbnail,Cats+Dogs,1475,Monthly,663,Somerset,NJ,40.4993,-74.5214,1577358998
5668619160,2,4,USD,No,Thumbnail,Cats+Dogs,1650,Monthly,1100,Urbana,IL,40.1171,-88.1889,1577358906
5668618357,1,1,USD,No,Thumbnail,Cats+Dogs,1200,Monthly,840,Lafayette,IN,40.3613,-86.9005,1577358850
5668617043,1,1,USD,No,Thumbnail,None,720,Monthly,511,Champaign,IL,40.1145,-88.2723,1577358765
5668615317,1,2,USD,No,Thumbnail,Cats+Dogs,1385,Monthly,572,Sacramento,CA,38.5587,-121.4320,1577358669
5668615207,1,1,USD,No,Thumbnail,Cats+Dogs,1007,Monthly,735,Lees Summit,MO,38.9163,-94.3719,1577358659
5668615006,2,3,USD,No,Thumbnail,Cats+Dogs,1499,Monthly,1544,Jacksonville,FL,30.2989,-81.6324,1577358645
5668614703,1,1,USD,No,Thumbnail,Cats+Dogs,671,Monthly,685,Orange,TX,30.1213,-93.7711,1577358623
5668614467,1,2,USD,No,Thumbnail,Cats+Dogs,1910,Monthly,745,Boulder,CO,40.0213,-105.2552,1577358607
5668613564,1,1,USD,No,Thumbnail,None,945,Monthly,530,San Antonio,TX,29.4624,-98.5253,1577358542
5668612602,1,1,USD,No,Thumbnail,Cats+Dogs,1164,Monthly,755,Owings Mills,MD,39.4276,-76.7727,1577358490
5668611315,1,2,USD,No,Thumbnail,Cats+Dogs,777,Monthly,563,Raleigh,NC,35.8230,-78.6438,1577358409
5668610263,1,1,USD,No,Thumbnail,Cats+Dogs,1055,Monthly,550,Saint Petersburg,FL,27.7873,-82.6772,1577358312
5668609452,1,1,USD,No,Thumbnail,Cats+Dogs,665,Monthly,443,Houston,TX,29.7714,-95.4343,1577358270
5668640290,1,1,USD,No,Thumbnail,Cats+Dogs,600,Monthly,347,Saint Louis,MO,38.6274,-90.3040,1577360376
5668639731,1,2,USD,No,Thumbnail,Cats+Dogs,2000,Monthly,1220,Kent,WA,47.3851,-122.1882,1577360335
5668639274,1,1,USD,No,Thumbnail,Cats+Dogs,799,Monthly,500,Oklahoma City,OK,35.4710,-97.5299,1577360301
5668638948,2,3,USD,No,Thumbnail,None,1400,Monthly,1168,Edwardsville,IL,38.8098,-89.9522,1577360274
5668638780,1,1,USD,No,Thumbnail,Cats+Dogs,1915,Monthly,760,Chicago,IL,41.8625,-87.6825,1577360262
5668638665,1,1,USD,No,Thumbnail,None,645,Monthly,675,West Bend,WI,43.4182,-88.1681,1577360253
5668638448,1,1,USD,No,Thumbnail,Cats+Dogs,650,Monthly,560,Bowling Green,OH,41.3712,-83.6212,1577360237
5668637790,2.5,3,USD,No,Thumbnail,Cats+Dogs,1795,Monthly,1656,Ridgefield,WA,45.7905,-122.6885,1577360181
5668637724,1,1,USD,No,Thumbnail,None,2683,Monthly,957,Nashville,TN,36.1370,-86.7830,1577360176
5668637644,3,3,USD,No,Thumbnail,None,3995,Monthly,2831,Portland,OR,45.5091,-122.6449,1577360171
5668637165,1,1,USD,No,Thumbnail,Cats+Dogs,850,Monthly,685,Dickinson,ND,46.8820,-102.7862,1577360146
5668636298,1,2,USD,No,Thumbnail,Cats+Dogs,885,Monthly,468,Omaha,NE,41.2562,-96.0404,1577360100
5668636211,1,2,USD,No,Thumbnail,Cats+Dogs,2395,Monthly,900,Washington,DC,38.9118,-77.0132,1577360093
5668636001,2,3,USD,No,Thumbnail,None,1250,Monthly,2628,Fort Smith,AR,35.3580,-94.3964,1577360079
5668635826,1,1,USD,No,Thumbnail,None,1795,Monthly,500,Carlsbad,CA,33.1201,-117.2858,1577360068
5668635738,1,2,USD,No,Thumbnail,None,545,Monthly,950,Arvilla,ND,47.8895,-97.4940,1577360061
5668635266,2.5,5,USD,No,Thumbnail,None,3495,Monthly,2900,Madison,WI,43.0724,-89.4003,1577360035
5668634764,1,0,USD,No,Thumbnail,None,1195,Monthly,300,Seattle,WA,47.6160,-122.3275,1577360005
5668634577,1,2,USD,No,Thumbnail,None,595,Monthly,792,Battle Creek,MI,42.3149,-85.1757,1577359996
5668634488,4,4,USD,No,Thumbnail,None,6500,Monthly,3800,Annapolis,MD,38.9844,-76.4994,1577359989
5668634340,2,3,USD,No,Thumbnail,None,1395,Monthly,1550,Grand Forks,ND,47.9179,-97.0658,1577359978
5668634074,1,1,USD,No,Thumbnail,Cats+Dogs,1145,Monthly,350,Philadelphia,PA,40.0054,-75.1415,1577359955
5668633861,2.5,4,USD,No,Thumbnail,None,1895,Monthly,2132,Vancouver,WA,45.6558,-122.5888,1577359939
5668633833,1,1,USD,No,Thumbnail,Cats+Dogs,975,Monthly,882,San Antonio,TX,29.4624,-98.5253,1577359937
5668633801,1,2,USD,No,Thumbnail,Cats+Dogs,1015,Monthly,845,Omaha,NE,41.2562,-96.0404,1577359934
5668632658,2,3,USD,No,Thumbnail,Cats+Dogs,1495,Monthly,1850,La Vista,NE,41.1765,-96.0829,1577359853
5668632537,1,1,USD,No,Thumbnail,None,1103,Monthly,652,Austin,TX,30.3054,-97.7497,1577359843
5668632393,1,1,USD,No,Thumbnail,None,1032,Monthly,600,Austin,TX,30.3054,-97.7497,1577359830
5668632355,1,2,USD,No,Thumbnail,None,1729,Monthly,448,Austin,TX,30.3054,-97.7497,1577359826
5668631771,1,2,USD,No,Thumbnail,None,920,Monthly,420,Austin,TX,30.3054,-97.7497,1577359776
5668630592,1,1,USD,No,Thumbnail,None,1339,Monthly,726,Cedar Park,TX,30.4973,-97.8276,1577359706
5668629731,1.5,3,USD,No,Thumbnail,None,1650,Monthly,1250,University Place,WA,47.2334,-122.5457,1577359641
5668629383,1,3,USD,No,Thumbnail,Cats+Dogs,1695,Monthly,1253,Cincinnati,OH,39.1679,-84.4933,1577359613
5668627573,1,1,USD,No,Thumbnail,Cats+Dogs,932,Monthly,725,Pearland,TX,29.5521,-95.3070,1577359474
5668627555,2,2,USD,No,Thumbnail,Cats+Dogs,1500,Monthly,1177,Brunswick,OH,41.2473,-81.8259,1577359473
5668627070,1,2,USD,No,Thumbnail,Cats+Dogs,2200,Monthly,1070,Hawthorne,CA,33.9136,-118.3527,1577359428
5668626983,2.5,2,USD,No,Thumbnail,Dogs,2795,Monthly,1370,Seattle,WA,47.6160,-122.3275,1577359421
5668626966,2.5,4,USD,No,Thumbnail,Cats+Dogs,3200,Monthly,1474,Pleasanton,CA,37.6806,-121.8921,1577359420
5668626795,2.5,3,USD,No,Thumbnail,Cats+Dogs,3399,Monthly,1721,San Jose,CA,37.3108,-121.8645,1577359405
5668625154,2,4,USD,No,Thumbnail,Cats+Dogs,1549,Monthly,2598,Laveen,AZ,33.3526,-112.1976,1577359296
5668624263,2,4,USD,No,Thumbnail,Cats+Dogs,1299,Monthly,2200,Conyers,GA,33.6471,-84.0154,1577359228
5668623892,1,1,USD,No,Thumbnail,None,778,Monthly,616,Kansas City,MO,39.0744,-94.5521,1577359202
5668623884,1,1,USD,No,Thumbnail,None,1140,Monthly,691,Kansas City,MO,39.0744,-94.5521,1577359201
5668622224,1,1,USD,No,Thumbnail,Cats+Dogs,949,Monthly,625,Tallahassee,FL,30.4601,-84.2714,1577359110
5668622069,1,1,USD,No,Thumbnail,Cats+Dogs,891,Monthly,832,Edmond,OK,35.6757,-97.4949,1577359101
5668620244,2,2,USD,No,Thumbnail,Cats+Dogs,1400,Monthly,1140,Waterloo,IA,42.4869,-92.3426,1577358986
5668619348,1,2,USD,No,Thumbnail,Cats+Dogs,1160,Monthly,338,Gainesville,FL,29.6533,-82.3656,1577358920
5668619216,1,1,USD,No,Thumbnail,None,1225,Monthly,450,College Station,TX,30.5969,-96.3034,1577358910
5668618416,1,2,USD,No,Thumbnail,None,960,Monthly,752,West Lafayette,IN,40.4969,-86.9659,1577358855
5668617140,2,3,USD,No,Thumbnail,Cats+Dogs,1525,Monthly,1698,Burleson,TX,32.5285,-97.3119,1577358772
5668617005,1,2,USD,No,Thumbnail,None,995,Monthly,1336,Ames,IA,42.0259,-93.6516,1577358763
5668616966,3,4,USD,No,Thumbnail,Cats+Dogs,1799,Monthly,3740,Maricopa,AZ,32.9749,-112.0905,1577358760
5668616749,1,1,USD,No,Thumbnail,Cats+Dogs,900,Monthly,701,Tucson,AZ,32.2264,-110.9438,1577358746
5668616618,1,1,USD,No,Thumbnail,Cats+Dogs,883,Monthly,719,Bellevue,NE,41.1378,-95.9392,1577358739
5668615971,1,3,USD,No,Thumbnail,None,1424,Monthly,1050,Forest Lake,MN,45.2764,-92.9901,1577358705
5668615295,1,1,USD,No,Thumbnail,Cats+Dogs,850,Monthly,770,Cincinnati,OH,39.1679,-84.4933,1577358668
5668615201,1,2,USD,No,Thumbnail,Cats+Dogs,715,Monthly,740,Lees Summit,MO,38.9163,-94.3719,1577358659
5668614448,1,2,USD,No,Thumbnail,Cats,1025,Monthly,500,Greeley,CO,40.4146,-104.7321,1577358605
5668614383,1,1,USD,No,Thumbnail,None,625,Monthly,468,Urbana,IL,40.1171,-88.1889,1577358600
5668613618,1,1,USD,No,Thumbnail,Cats+Dogs,1660,Monthly,727,Atlanta,GA,33.7848,-84.3922,1577358546
5668613578,1,1,USD,No,Thumbnail,Cats+Dogs,2000,Monthly,585,Fremont,CA,37.5444,-121.9820,1577358543
5668613466,1,1,USD,No,Thumbnail,Cats+Dogs,1649,Monthly,738,Tampa,FL,28.0076,-82.4792,1577358536
5668612874,1,1,USD,No,Thumbnail,Cats+Dogs,1345,Monthly,675,San Bernardino,CA,34.1334,-117.2920,1577358507
5668612750,1,1,USD,No,Thumbnail,Cats,1505,Monthly,490,Bellevue,WA,47.5988,-122.1507,1577358498
5668612739,1,1,USD,No,Thumbnail,Cats+Dogs,1575,Monthly,720,Lake Forest Park,WA,47.7631,-122.2901,1577358498
5668612715,1,1,USD,No,Thumbnail,Cats+Dogs,1445,Monthly,700,Kent,WA,47.3851,-122.1882,1577358496
5668612700,2,2,USD,No,Thumbnail,Cats+Dogs,1440,Monthly,973,Federal Way,WA,47.3071,-122.3404,1577358495
5668612647,1,1,USD,No,Thumbnail,Cats+Dogs,1161,Monthly,780,Tampa,FL,28.0076,-82.4792,1577358492
5668612044,1,1,USD,No,Thumbnail,Cats+Dogs,1495,Monthly,825,New Bedford,MA,41.6505,-70.9367,1577358461
5668612030,1,2,USD,No,Thumbnail,Cats+Dogs,946,Monthly,720,Baltimore,MD,39.3191,-76.6126,1577358460
5668611689,1,2,USD,No,Thumbnail,Cats,1570,Monthly,582,Philadelphia,PA,40.0054,-75.1415,1577358440
5668611090,1,2,USD,No,Thumbnail,Cats+Dogs,950,Monthly,650,Kansas City,MO,39.0744,-94.5521,1577358391
5668609530,1,1,USD,No,Thumbnail,Cats+Dogs,535,Monthly,539,Houston,TX,29.7714,-95.4343,1577358274
5668609491,1,1,USD,No,Thumbnail,Cats+Dogs,877,Monthly,1003,Houston,TX,29.7714,-95.4343,1577358272
5668609277,1,1,USD,No,Thumbnail,Cats+Dogs,1889,Monthly,939,Houston,TX,29.7714,-95.4343,1577358259
5668609146,1,1,USD,No,Thumbnail,Cats+Dogs,1150,Monthly,580,Houston,TX,29.7714,-95.4343,1577358251
5668639419,3.5,5,USD,No,Thumbnail,Dogs,2350,Monthly,2800,Monument,CO,39.0994,-104.8503,1577360312
5668639298,1,0,USD,No,Thumbnail,Cats+Dogs,1299,Monthly,350,Portland,OR,45.5091,-122.6449,1577360303
5668639212,1,0,USD,No,Thumbnail,Cats+Dogs,1250,Monthly,228,Seattle,WA,47.6160,-122.3275,1577360296
5668639058,1,1,USD,No,Thumbnail,Dogs,825,Monthly,550,Georgetown,TX,30.6505,-97.6809,1577360282
5668639039,1,1,USD,No,Thumbnail,Cats+Dogs,675,Monthly,700,Omaha,NE,41.2562,-96.0404,1577360280
5668638910,3.5,4,USD,No,Thumbnail,None,8500,Monthly,2613,Kailua,HI,21.3991,-157.7452,1577360272
5668638650,1,1,USD,No,Thumbnail,Cats,1425,Monthly,650,Parsippany,NJ,40.8620,-74.4061,1577360252
5668638375,1,1,USD,No,Thumbnail,Cats+Dogs,830,Monthly,727,Lithonia,GA,33.7147,-84.1355,1577360230
5668638119,2.5,3,USD,No,Thumbnail,None,1750,Monthly,2068,Cocoa Beach,FL,28.3288,-80.6118,1577360204
5668638112,1,1,USD,No,Thumbnail,Cats+Dogs,595,Monthly,300,Grand Junction,CO,39.0744,-108.5228,1577360203
5668637566,3,4,USD,No,Thumbnail,Cats+Dogs,2700,Monthly,2528,Georgetown,TX,30.6505,-97.6809,1577360167
5668636995,1,1,USD,No,Thumbnail,Cats+Dogs,885,Monthly,660,Blanco,TX,30.1051,-98.4216,1577360141
5668636856,1,0,USD,No,Thumbnail,Cats+Dogs,1130,Monthly,490,Forest Grove,OR,45.5221,-123.1071,1577360136
5668636750,2,2,USD,No,Thumbnail,Cats+Dogs,1650,Monthly,789,Miami Beach,FL,25.8275,-80.1842,1577360132
5668636607,2.5,3,USD,No,Thumbnail,None,4525,Monthly,1884,Birmingham,MI,42.5447,-83.2141,1577360123
5668636475,1,1,USD,No,Thumbnail,Cats+Dogs,625,Monthly,650,Omaha,NE,41.2562,-96.0404,1577360113
5668635638,1,1,USD,No,Thumbnail,None,595,Monthly,615,Jonesboro,AR,35.8199,-90.7016,1577360054
5668635550,1,1,USD,No,Thumbnail,Cats+Dogs,1370,Monthly,708,Milwaukee,WI,43.0336,-87.9094,1577360049
5668634751,1,2,USD,No,Thumbnail,Cats+Dogs,1675,Monthly,725,Philadelphia,PA,40.0054,-75.1415,1577360005
5668634610,1,1,USD,No,Thumbnail,Cats+Dogs,985,Monthly,642,Austin,TX,30.3054,-97.7497,1577359998
5668634483,2.5,2,USD,No,Thumbnail,Cats+Dogs,2200,Monthly,1082,Lemon Grove,CA,32.7331,-117.0332,1577359988
5668634086,1,1,USD,No,Thumbnail,Cats+Dogs,825,Monthly,856,Fort Worth,TX,32.7407,-97.3394,1577359956
5668633803,3,3,USD,No,Thumbnail,Cats+Dogs,1895,Monthly,1820,Omaha,NE,41.2562,-96.0404,1577359935
5668633317,2.5,3,USD,No,Thumbnail,Cats+Dogs,2047,Monthly,1851,Winter Garden,FL,28.5335,-81.5918,1577359905
5668632742,1,1,USD,No,Thumbnail,None,1155,Monthly,697,Leander,TX,30.5104,-97.9027,1577359859
5668632460,1,3,USD,No,Thumbnail,None,1210,Monthly,597,Austin,TX,30.3054,-97.7497,1577359836
5668631794,1,1,USD,No,Thumbnail,None,1554,Monthly,777,Austin,TX,30.3054,-97.7497,1577359778
5668631644,1,1,USD,No,Thumbnail,None,1130,Monthly,792,Austin,TX,30.3054,-97.7497,1577359767
5668630796,1,1,USD,No,Thumbnail,None,1125,Monthly,658,Austin,TX,30.3054,-97.7497,1577359719
5668630679,1,1,USD,No,Thumbnail,Cats+Dogs,1391,Monthly,677,Dallas,TX,32.8212,-96.7853,1577359711
5668630600,1,2,USD,No,Thumbnail,None,1050,Monthly,508,Austin,TX,30.3054,-97.7497,1577359706
5668630436,1,1,USD,No,Thumbnail,Cats+Dogs,2500,Monthly,724,Austin,TX,30.3054,-97.7497,1577359697
5668630425,1,1,USD,No,Thumbnail,Cats+Dogs,2184,Monthly,835,Austin,TX,30.3054,-97.7497,1577359696
5668629810,1,2,USD,No,Thumbnail,Cats+Dogs,1950,Monthly,975,Philadelphia,PA,40.0054,-75.1415,1577359648
5668629442,1,1,USD,No,Thumbnail,Cats+Dogs,2186,Monthly,843,Dallas,TX,32.8212,-96.7853,1577359617
5668629302,1,1,USD,No,Thumbnail,None,930,Monthly,610,Austin,TX,30.3054,-97.7497,1577359607
5668628860,1,1,USD,No,Thumbnail,Cats+Dogs,999,Monthly,522,Doylestown,PA,40.3325,-75.1166,1577359575
5668628751,1,3,USD,No,Thumbnail,Cats+Dogs,1650,Monthly,750,Chicago,IL,41.8625,-87.6825,1577359567
5668627875,1.5,2,USD,No,Thumbnail,None,1545,Monthly,885,Provo,UT,40.2355,-111.6479,1577359498
5668627833,2,3,USD,No,Thumbnail,None,1899,Monthly,1307,Fernandina Beach,FL,30.6378,-81.4612,1577359495
5668627707,2,2,USD,No,Thumbnail,Cats+Dogs,1950,Monthly,1070,Chicago,IL,41.8625,-87.6825,1577359483
5668627413,1,1,USD,No,Thumbnail,Cats+Dogs,2990,Monthly,794,Detroit,MI,42.3882,-83.1122,1577359460
5668627357,2.5,2,USD,No,Thumbnail,Cats,2350,Monthly,1451,Sacramento,CA,38.5587,-121.4320,1577359454
5668626831,1,2,USD,No,Thumbnail,Cats+Dogs,2195,Monthly,816,Long Beach,CA,33.8056,-118.1696,1577359410
5668626745,3,4,USD,No,Thumbnail,None,3850,Monthly,2440,Gilroy,CA,37.0199,-121.5728,1577359399
5668626656,1,1,USD,No,Thumbnail,Cats+Dogs,2990,Monthly,661,Detroit,MI,42.3882,-83.1122,1577359390
5668626326,2,5,USD,No,Thumbnail,None,6300,Monthly,2100,Brookline,MA,42.3368,-71.1267,1577359368
5668626140,1,2,USD,No,Thumbnail,None,1230,Monthly,457,Boise,ID,43.6046,-116.2475,1577359357
5668625273,1,1,USD,No,Thumbnail,Cats,1395,Monthly,500,Chicago,IL,41.8625,-87.6825,1577359304
5668623688,1,1,USD,No,Thumbnail,Cats+Dogs,2295,Monthly,332,San Francisco,CA,37.7599,-122.4379,1577359191
5668622898,2,3,USD,No,Thumbnail,Cats+Dogs,1199,Monthly,1200,Columbia,SC,34.0505,-81.0098,1577359143
5668622699,1,1,USD,No,Thumbnail,Cats+Dogs,646,Monthly,656,Meridian,ID,43.6090,-116.3988,1577359132
5668622549,1,1,USD,No,Thumbnail,None,895,Monthly,690,San Antonio,TX,29.4624,-98.5253,1577359125
5668622530,1,1,USD,No,Thumbnail,None,884,Monthly,622,San Antonio,TX,29.4624,-98.5253,1577359124
5668622311,1,1,USD,No,Thumbnail,Cats+Dogs,640,Monthly,530,Davenport,IA,41.5486,-90.5922,1577359114
5668622103,1,1,USD,No,Thumbnail,Cats+Dogs,1756,Monthly,862,Providence,RI,41.8240,-71.4315,1577359104
5668621582,2,4,USD,No,Thumbnail,None,1900,Monthly,1150,Urbana,IL,40.1171,-88.1889,1577359069
5668620392,1,1,USD,No,Thumbnail,None,1209,Monthly,500,Eugene,OR,44.0410,-123.1254,1577358996
5668619707,2,2,USD,No,Thumbnail,Cats,1568,Monthly,828,State College,PA,40.7985,-77.8612,1577358946
5668619505,1,1,USD,No,Thumbnail,Cats+Dogs,1180,Monthly,664,Mishawaka,IN,41.6650,-86.1592,1577358931
5668618499,1,2,USD,No,Thumbnail,Cats+Dogs,900,Monthly,551,Rochester,MN,44.0346,-92.4680,1577358862
5668618420,1,2,USD,No,Thumbnail,None,1040,Monthly,470,West Lafayette,IN,40.4969,-86.9659,1577358855
5668618400,3,3,USD,No,Thumbnail,Cats+Dogs,960,Monthly,1470,West Lafayette,IN,40.4969,-86.9659,1577358854
5668617849,1,2,USD,No,Thumbnail,None,820,Monthly,916,Grand Forks,ND,47.9179,-97.0658,1577358818
5668617594,2,4,USD,No,Thumbnail,Cats+Dogs,1440,Monthly,1832,Manhattan,KS,39.1984,-96.6052,1577358800
5668617224,2,3,USD,No,Thumbnail,Cats+Dogs,1299,Monthly,1358,Glendale,AZ,33.5944,-112.1837,1577358777
5668617089,1,2,USD,No,Thumbnail,Cats+Dogs,1631,Monthly,499,Long Beach,CA,33.8056,-118.1696,1577358769
5668616952,1,1,USD,No,Thumbnail,Cats+Dogs,1020,Monthly,740,Peoria,AZ,33.6047,-112.2456,1577358759
5668615889,1,1,USD,No,Thumbnail,Cats+Dogs,1125,Monthly,676,Columbus,OH,39.9850,-83.0728,1577358702
5668615727,1,1,USD,No,Thumbnail,Cats+Dogs,1211,Monthly,866,Morrisville,NC,35.8269,-78.8335,1577358694
5668615712,2,2,USD,No,Thumbnail,None,1010,Monthly,1100,Charlotte,NC,35.2016,-80.8124,1577358693
5668615657,1,1,USD,No,Thumbnail,None,1675,Monthly,682,Fountain Valley,CA,33.7166,-117.9446,1577358690
5668615287,2,3,USD,No,Thumbnail,Cats+Dogs,1500,Monthly,1382,Lees Summit,MO,38.9163,-94.3719,1577358666
5668615079,1,2,USD,No,Thumbnail,Cats+Dogs,944,Monthly,1125,Indianapolis,IN,39.7953,-86.1387,1577358651
5668615050,1,3,USD,No,Thumbnail,Cats+Dogs,950,Monthly,680,Antioch,TN,36.0402,-86.6385,1577358648
5668615042,2,2,USD,No,Thumbnail,Cats+Dogs,1004,Monthly,912,Spring Hill,TN,35.7530,-86.8832,1577358647
5668613102,1,1,USD,No,Thumbnail,Cats+Dogs,3795,Monthly,648,San Francisco,CA,37.7599,-122.4379,1577358519
5668612839,1,1,USD,No,Thumbnail,Cats+Dogs,1875,Monthly,732,Bellevue,WA,47.5988,-122.1507,1577358505
5668611837,1,2,USD,No,Thumbnail,Cats+Dogs,1050,Monthly,579,Dallas,TX,32.8212,-96.7853,1577358449
5668610819,2,3,USD,No,Thumbnail,Cats+Dogs,1499,Monthly,1665,Charlotte,NC,35.2016,-80.8124,1577358360
5668610290,1,0,USD,No,Thumbnail,None,1495,Monthly,138,San Francisco,CA,37.7599,-122.4379,1577358313
5668609932,1,1,USD,No,Thumbnail,Cats+Dogs,791,Monthly,717,Ballwin,MO,38.5855,-90.5365,1577358295
5668609804,1,1,USD,No,Thumbnail,Cats,1417,Monthly,840,Houston,TX,29.7714,-95.4343,1577358290
5668609432,1,1,USD,No,Thumbnail,Cats+Dogs,1109,Monthly,678,Houston,TX,29.7714,-95.4343,1577358269
5668639932,2.5,3,USD,No,Thumbnail,Cats+Dogs,1695,Monthly,1542,Bismarck,ND,46.8013,-100.7562,1577360350
5668639857,2,2,USD,No,Thumbnail,Cats+Dogs,2795,Monthly,900,Los Angeles,CA,34.0372,-118.2972,1577360343
5668639295,2,2,USD,No,Thumbnail,None,950,Monthly,1500,Jacksonville,AL,33.8297,-85.7759,1577360303
5668638878,1,2,USD,No,Thumbnail,Cats+Dogs,875,Monthly,950,Oklahoma City,OK,35.4710,-97.5299,1577360269
5668638706,2,2,USD,No,Thumbnail,Cats+Dogs,2595,Monthly,1025,Los Angeles,CA,34.0372,-118.2972,1577360256
5668638701,1,2,USD,No,Thumbnail,None,1499,Monthly,540,Duarte,CA,34.1383,-117.9635,1577360255
5668638221,1,1,USD,No,Thumbnail,Dogs,4500,Monthly,769,San Francisco,CA,37.7599,-122.4379,1577360216
5668637979,2,3,USD,No,Thumbnail,Cats+Dogs,1400,Monthly,1285,Clayton,NC,35.6101,-78.4715,1577360193
5668637850,1,1,USD,No,Thumbnail,Cats+Dogs,1025,Monthly,545,Salt Lake City,UT,40.7061,-111.9048,1577360185
5668637461,1,2,USD,No,Thumbnail,Cats+Dogs,1450,Monthly,1215,Saint Louis,MO,38.6274,-90.3040,1577360160
5668636489,1,1,USD,No,Thumbnail,Cats+Dogs,750,Monthly,734,Chubbuck,ID,42.9373,-112.4885,1577360114
5668636412,1,2,USD,No,Thumbnail,Cats+Dogs,2540,Monthly,1500,Denver,CO,39.7360,-104.9819,1577360108
5668636268,1,1,USD,No,Thumbnail,None,2600,Monthly,800,Oakland,CA,37.7904,-122.2151,1577360098
5668635800,1,1,USD,No,Thumbnail,None,1595,Monthly,642,Santa Clarita,CA,34.4310,-118.5222,1577360066
5668635544,1,1,USD,No,Thumbnail,Cats,1750,Monthly,720,Portland,OR,45.5091,-122.6449,1577360049
5668635230,2,3,USD,No,Thumbnail,Cats+Dogs,2150,Monthly,2120,Tampa,FL,28.0076,-82.4792,1577360033
5668635199,2,3,USD,No,Thumbnail,Cats+Dogs,995,Monthly,1120,Grand Forks,ND,47.9179,-97.0658,1577360032
5668635171,2,3,USD,No,Thumbnail,Cats+Dogs,1265,Monthly,1800,Saint Louis,MO,38.6274,-90.3040,1577360030
5668634545,1.5,1,USD,No,Thumbnail,Cats+Dogs,1595,Monthly,700,Seattle,WA,47.6160,-122.3275,1577359993
5668634326,1,2,USD,No,Thumbnail,None,695,Monthly,900,Brandon,SD,43.5884,-96.5752,1577359976
5668634079,1,1,USD,No,Thumbnail,None,825,Monthly,621,Troy,NY,42.7509,-73.6189,1577359956
5668633997,2,2,USD,No,Thumbnail,None,1995,Monthly,1601,Boise,ID,43.6046,-116.2475,1577359949
5668633878,1,0,USD,No,Thumbnail,Cats+Dogs,850,Monthly,400,Houston,TX,29.7714,-95.4343,1577359940
5668633806,1,2,USD,No,Thumbnail,Cats+Dogs,1050,Monthly,1100,Omaha,NE,41.2562,-96.0404,1577359935
5668633743,1,1,USD,No,Thumbnail,Cats+Dogs,873,Monthly,820,Macon,GA,32.8330,-83.6723,1577359929
5668633431,1,1,USD,No,Thumbnail,Cats+Dogs,925,Monthly,670,Omaha,NE,41.2562,-96.0404,1577359912
5668633273,1,2,USD,No,Thumbnail,Cats+Dogs,1650,Monthly,1200,Chicago,IL,41.8625,-87.6825,1577359902
5668633090,1,1,USD,No,Thumbnail,None,989,Monthly,791,Austin,TX,30.3054,-97.7497,1577359890
5668633042,1,1,USD,No,Thumbnail,Cats+Dogs,605,Monthly,717,Paducah,KY,37.0340,-88.6479,1577359886
5668632903,1,2,USD,No,Thumbnail,Cats+Dogs,1285,Monthly,850,Oregon City,OR,45.3402,-122.5586,1577359874
5668632876,1,0,USD,No,Thumbnail,Cats+Dogs,1400,Monthly,355,Los Angeles,CA,34.0372,-118.2972,1577359871
5668632735,1,1,USD,No,Thumbnail,Cats+Dogs,1595,Monthly,600,Los Angeles,CA,34.0372,-118.2972,1577359859
5668632576,1,1,USD,No,Thumbnail,None,1195,Monthly,650,Austin,TX,30.3054,-97.7497,1577359847
5668632573,1,1,USD,No,Thumbnail,None,1600,Monthly,877,Austin,TX,30.3054,-97.7497,1577359846
5668631890,1,1,USD,No,Thumbnail,None,1656,Monthly,705,Nashville,TN,36.1370,-86.7830,1577359787
5668631816,1,1,USD,No,Thumbnail,None,1035,Monthly,766,Austin,TX,30.3054,-97.7497,1577359780
5668631756,1,1,USD,No,Thumbnail,None,972,Monthly,892,Round Rock,TX,30.5118,-97.6873,1577359775
5668631401,1,1,USD,No,Thumbnail,None,1027,Monthly,677,Austin,TX,30.3054,-97.7497,1577359754
5668631084,1,0,USD,No,Thumbnail,None,1350,Monthly,500,Tustin,CA,33.7363,-117.8131,1577359735
5668630973,1,1,USD,No,Thumbnail,None,1035,Monthly,660,Leander,TX,30.5104,-97.9027,1577359729
5668630304,1,1,USD,No,Thumbnail,Cats+Dogs,2017,Monthly,671,Austin,TX,30.3054,-97.7497,1577359685
5668630232,1,2,USD,No,Thumbnail,None,800,Monthly,430,Austin,TX,30.3054,-97.7497,1577359679
5668630178,1.5,1,USD,No,Thumbnail,Cats+Dogs,1065,Monthly,1145,Sioux Falls,SD,43.5329,-96.7265,1577359675
5668630058,1,2,USD,No,Thumbnail,None,897,Monthly,450,Austin,TX,30.3054,-97.7497,1577359667
5668629987,2.5,2,USD,No,Thumbnail,None,1739,Monthly,1438,Pflugerville,TX,30.4433,-97.6282,1577359662
5668629747,1,2,USD,No,Thumbnail,Cats+Dogs,1250,Monthly,552,San Antonio,TX,29.4624,-98.5253,1577359643
5668629708,3.5,3,USD,No,Thumbnail,Cats+Dogs,2800,Monthly,2232,Jacksonville,FL,30.2989,-81.6324,1577359639
5668629307,2,3,USD,No,Thumbnail,Cats+Dogs,2350,Monthly,1857,Aurora,CO,39.6828,-104.8078,1577359607
5668629210,2,3,USD,No,Thumbnail,Cats+Dogs,2000,Monthly,1198,San Jose,CA,37.3108,-121.8645,1577359600
5668628995,1,1,USD,No,Thumbnail,Cats+Dogs,795,Monthly,737,San Antonio,TX,29.4624,-98.5253,1577359585
5668628971,1,1,USD,No,Thumbnail,Cats+Dogs,1280,Monthly,700,Sacramento,CA,38.5587,-121.4320,1577359584
5668628388,2,2,USD,No,Thumbnail,Cats,2199,Monthly,764,Seattle,WA,47.6160,-122.3275,1577359543
5668628306,1,1,USD,No,Thumbnail,Cats+Dogs,1050,Monthly,362,Chicago,IL,41.8625,-87.6825,1577359538
5668628082,1,1,USD,No,Thumbnail,None,2800,Monthly,850,Oakland,CA,37.7904,-122.2151,1577359520
5668627844,1,1,USD,No,Thumbnail,Cats+Dogs,1730,Monthly,606,Dallas,TX,32.8212,-96.7853,1577359496
5668627685,1,1,USD,No,Thumbnail,Cats+Dogs,900,Monthly,677,Austin,TX,30.3054,-97.7497,1577359481
5668627548,1,1,USD,No,Thumbnail,Cats+Dogs,955,Monthly,625,Pflugerville,TX,30.4433,-97.6282,1577359472
5668627277,1,2,USD,No,Thumbnail,Cats+Dogs,1600,Monthly,1400,Chicago,IL,41.8625,-87.6825,1577359446
5668627192,1,1,USD,No,Thumbnail,Cats+Dogs,1125,Monthly,642,Austin,TX,30.3054,-97.7497,1577359438
5668627087,2,2,USD,No,Thumbnail,None,2499,Monthly,1590,North Hollywood,CA,34.1881,-118.3905,1577359429
5668626842,3,4,USD,No,Thumbnail,None,2400,Monthly,2516,Orlando,FL,28.5163,-81.3644,1577359410
5668626676,1,1,USD,No,Thumbnail,Cats+Dogs,2640,Monthly,600,Detroit,MI,42.3882,-83.1122,1577359392
5668626465,1,1,USD,No,Thumbnail,None,3388,Monthly,960,Hillsborough,CA,37.5670,-122.3657,1577359374
5668625213,2,2,USD,No,Thumbnail,Cats,1990,Monthly,900,Chicago,IL,41.8625,-87.6825,1577359300
5668625162,2,3,USD,No,Thumbnail,Cats+Dogs,1399,Monthly,1713,Glendale,AZ,33.5944,-112.1837,1577359296
5668624930,2,3,USD,No,Thumbnail,Cats+Dogs,1599,Monthly,1413,Charlotte,NC,35.2016,-80.8124,1577359279
5668624662,1,1,USD,No,Thumbnail,Cats+Dogs,809,Monthly,653,Humble,TX,30.0021,-95.2555,1577359257
5668624206,2,4,USD,No,Thumbnail,Cats+Dogs,1399,Monthly,1633,Acworth,GA,34.0656,-84.6658,1577359223
5668623633,1,1,USD,No,Thumbnail,Cats+Dogs,1489,Monthly,940,Lakewood,CO,39.6894,-105.1119,1577359188
5668623209,1,1,USD,No,Thumbnail,Cats+Dogs,690,Monthly,730,Omaha,NE,41.2562,-96.0404,1577359164
5668622981,1,1,USD,No,Thumbnail,Cats+Dogs,937,Monthly,752,Gonzales,LA,30.2450,-90.9169,1577359147
5668622961,1,1,USD,No,Thumbnail,Cats+Dogs,740,Monthly,750,Baton Rouge,LA,30.4415,-91.1012,1577359146
5668622946,2,2,USD,No,Thumbnail,Cats+Dogs,565,Monthly,900,Weslaco,TX,26.1596,-97.9890,1577359145
5668622453,1,1,USD,No,Thumbnail,Cats+Dogs,1009,Monthly,826,Altamonte Springs,FL,28.6658,-81.3932,1577359121
5668622339,1,2,USD,No,Thumbnail,Cats+Dogs,1565,Monthly,921,Franklin,TN,35.9393,-86.8716,1577359116
5668621889,1,2,USD,No,Thumbnail,Cats+Dogs,700,Monthly,748,Des Moines,IA,41.5927,-93.6276,1577359089
5668621830,1,2,USD,No,Thumbnail,None,725,Monthly,800,West Des Moines,IA,41.5835,-93.7597,1577359086
5668621454,1,3,USD,No,Thumbnail,Cats,960,Monthly,1050,Champaign,IL,40.1145,-88.2723,1577359061
5668621331,1,1,USD,No,Thumbnail,Cats+Dogs,850,Monthly,273,Bloomington,IN,39.1471,-86.5136,1577359051
5668621287,1,1,USD,No,Thumbnail,Cats+Dogs,725,Monthly,600,Bloomington,IN,39.1471,-86.5136,1577359049
5668620290,1,3,USD,No,Thumbnail,Cats+Dogs,800,Monthly,500,Greenville,NC,35.6066,-77.3928,1577358989
5668619783,1,1,USD,No,Thumbnail,Cats+Dogs,600,Monthly,660,Abilene,TX,32.4418,-99.7494,1577358952
5668619724,1,1,USD,No,Thumbnail,Cats+Dogs,386,Monthly,375,Edgerton,WI,42.8224,-89.0658,1577358947
5668619613,2,2,USD,No,Thumbnail,Cats+Dogs,850,Monthly,1067,Mosinee,WI,44.7897,-89.6859,1577358939
5668618437,1,0,USD,No,Thumbnail,None,799,Monthly,375,West Lafayette,IN,40.4969,-86.9659,1577358856
5668618352,1,2,USD,No,Thumbnail,Cats+Dogs,750,Monthly,550,Lafayette,IN,40.3613,-86.9005,1577358850
5668618282,1,1,USD,No,Thumbnail,None,799,Monthly,400,West Lafayette,IN,40.4969,-86.9659,1577358846
5668617440,2,4,USD,No,Thumbnail,Cats+Dogs,1525,Monthly,1868,Garner,NC,35.6870,-78.6082,1577358789
5668617066,2,2,USD,No,Thumbnail,None,2010,Monthly,930,Placentia,CA,33.8726,-117.8546,1577358767
5668616030,1,2,USD,No,Thumbnail,Cats+Dogs,1245,Monthly,530,Plymouth,MN,45.0201,-93.4623,1577358708
5668615955,1,1,USD,No,Thumbnail,Cats+Dogs,1070,Monthly,800,Eagan,MN,44.8461,-93.1596,1577358705
5668615506,1,1,USD,No,Thumbnail,Cats+Dogs,1450,Monthly,510,Portland,OR,45.5091,-122.6449,1577358681
5668615402,1,1,USD,No,Thumbnail,Cats+Dogs,1360,Monthly,624,Vancouver,WA,45.6558,-122.5888,1577358675
5668615291,1,1,USD,No,Thumbnail,Cats+Dogs,720,Monthly,600,Hamilton,OH,39.3970,-84.5558,1577358667
5668614850,1,1,USD,No,Thumbnail,Cats+Dogs,820,Monthly,460,Colorado Springs,CO,38.8562,-104.7720,1577358634
5668614656,1,2,USD,No,Thumbnail,Cats,1200,Monthly,350,Haverhill,MA,42.7742,-71.0937,1577358621
5668614629,1,1,USD,No,Thumbnail,Cats+Dogs,895,Monthly,606,Anchorage,AK,61.1723,-149.8414,1577358619
5668614605,1,2,USD,No,Thumbnail,Cats,955,Monthly,380,Anchorage,AK,61.1723,-149.8414,1577358618
5668614542,2,2,USD,No,Thumbnail,Cats+Dogs,1250,Monthly,1025,Anchorage,AK,61.1723,-149.8414,1577358613
5668614420,1,2,USD,No,Thumbnail,Cats+Dogs,1397,Monthly,913,Tacoma,WA,47.2154,-122.4608,1577358603
5668614327,1,2,USD,No,Thumbnail,Cats+Dogs,1030,Monthly,745,Athens,GA,33.9481,-83.3788,1577358596
5668614269,1,1,USD,No,Thumbnail,Cats+Dogs,902,Monthly,384,Chicago,IL,41.8625,-87.6825,1577358590
5668614197,1,1,USD,No,Thumbnail,Cats+Dogs,1212,Monthly,723,Dallas,TX,32.8212,-96.7853,1577358584
5668613910,1,2,USD,No,Thumbnail,Cats+Dogs,1450,Monthly,410,Fort Belvoir,VA,38.7128,-77.1561,1577358563
5668613307,1,1,USD,No,Thumbnail,Cats+Dogs,938,Monthly,688,College Park,GA,33.6194,-84.4886,1577358529
5668613068,1,1,USD,No,Thumbnail,Cats+Dogs,3095,Monthly,432,San Francisco,CA,37.7599,-122.4379,1577358517
5668612522,1,1,USD,No,Thumbnail,Cats+Dogs,1326,Monthly,580,Lakewood,CO,39.6894,-105.1119,1577358486
5668612459,1,1,USD,No,Thumbnail,Cats+Dogs,1034,Monthly,651,Lawrenceville,GA,33.9569,-84.0214,1577358483
5668612386,1,3,USD,No,Thumbnail,Cats+Dogs,635,Monthly,520,Abilene,TX,32.4418,-99.7494,1577358479
5668612295,1,1,USD,No,Thumbnail,Cats+Dogs,1675,Monthly,967,Odessa,TX,31.8666,-102.3901,1577358475
5668611825,1,2,USD,No,Thumbnail,Cats+Dogs,1538,Monthly,481,Denver,CO,39.7360,-104.9819,1577358448
5668611702,1,1,USD,No,Thumbnail,Cats+Dogs,1410,Monthly,651,Alexandria,VA,38.7999,-77.1072,1577358441
5668611527,1,1,USD,No,Thumbnail,Cats+Dogs,941,Monthly,627,Baltimore,MD,39.3191,-76.6126,1577358427
5668611416,1,1,USD,No,Thumbnail,Cats+Dogs,1365,Monthly,617,Phoenix,AZ,33.5178,-112.0848,1577358417
5668610470,1,1,USD,No,Thumbnail,None,1012,Monthly,646,San Antonio,TX,29.4624,-98.5253,1577358326
5668610423,1,1,USD,No,Thumbnail,None,959,Monthly,774,San Antonio,TX,29.4602,-98.6876,1577358322
5668609312,1,1,USD,No,Thumbnail,None,1192,Monthly,593,Houston,TX,29.7714,-95.4343,1577358261
5668639995,1,1,USD,No,Thumbnail,Cats+Dogs,2095,Monthly,798,Santa Rosa,CA,38.4498,-122.7129,1577360354
5668639874,1.5,2,USD,No,Thumbnail,None,1100,Monthly,812,Austin,TX,30.3054,-97.7497,1577360344
5668639708,1,0,USD,No,Thumbnail,Cats,1095,Monthly,231,Seattle,WA,47.6160,-122.3275,1577360334
5668638516,1,1,USD,No,Thumbnail,None,1350,Monthly,557,Philadelphia,PA,40.0054,-75.1415,1577360242
5668638412,1,1,USD,No,Thumbnail,Cats+Dogs,1210,Monthly,1166,Horseshoe Bay,TX,30.5797,-98.2721,1577360234
5668637495,1,1,USD,No,Thumbnail,Cats+Dogs,965,Monthly,700,Ames,IA,42.0259,-93.6516,1577360162
5668637215,1,1,USD,No,Thumbnail,Cats,750,Monthly,750,Clarkston,MI,42.7445,-83.4085,1577360148
5668637101,1,1,USD,No,Thumbnail,Cats+Dogs,1785,Monthly,800,Woodland Hills,CA,34.1677,-118.6141,1577360144
5668635418,1,1,USD,No,Thumbnail,Cats+Dogs,925,Monthly,500,Salt Lake City,UT,40.7061,-111.9048,1577360042
5668635331,2,2,USD,No,Thumbnail,Cats+Dogs,1950,Monthly,1100,Florence,SC,34.1751,-79.7643,1577360038
5668635052,1,3,USD,No,Thumbnail,Cats+Dogs,1895,Monthly,1100,Portland,OR,45.5091,-122.6449,1577360023
5668634974,1,1,USD,No,Thumbnail,None,2095,Monthly,700,Oakland,CA,37.7904,-122.2151,1577360018
5668634963,1,2,USD,No,Thumbnail,None,2350,Monthly,700,Oakland,CA,37.7904,-122.2151,1577360017
5668634259,1,3,USD,No,Thumbnail,None,1695,Monthly,1406,Vancouver,WA,45.6558,-122.5888,1577359971
5668633596,1,2,USD,No,Thumbnail,None,625,Monthly,800,Minot,ND,48.2469,-101.3017,1577359920
5668633308,2,3,USD,No,Thumbnail,Cats+Dogs,1375,Monthly,1347,Jacksonville,FL,30.2989,-81.6324,1577359904
5668633249,2.5,4,USD,No,Thumbnail,None,2600,Monthly,3200,Orlando,FL,28.5163,-81.3644,1577359901
5668633169,1,1,USD,No,Thumbnail,None,1290,Monthly,559,Austin,TX,30.3054,-97.7497,1577359896
5668632726,2.5,3,USD,No,Thumbnail,Cats+Dogs,1695,Monthly,1525,Mandan,ND,46.8296,-100.8908,1577359858
5668632685,1,2,USD,No,Thumbnail,Cats+Dogs,595,Monthly,850,Minot,ND,48.2469,-101.3017,1577359855
5668632667,1,2,USD,No,Thumbnail,Cats+Dogs,545,Monthly,550,Minot,ND,48.2469,-101.3017,1577359854
5668632646,1,1,USD,No,Thumbnail,None,1786,Monthly,650,Austin,TX,30.3054,-97.7497,1577359852
5668632125,1,1,USD,No,Thumbnail,None,1200,Monthly,640,Austin,TX,30.3054,-97.7497,1577359807
5668632061,1,1,USD,No,Thumbnail,None,915,Monthly,696,Austin,TX,30.3054,-97.7497,1577359801
5668631514,1,2,USD,No,Thumbnail,None,1258,Monthly,531,Austin,TX,30.3054,-97.7497,1577359760
5668630966,2,3,USD,No,Thumbnail,None,1250,Monthly,1348,Calera,AL,33.1550,-86.7175,1577359728
5668630433,1,1,USD,No,Thumbnail,Cats+Dogs,2035,Monthly,953,Austin,TX,30.3054,-97.7497,1577359696
5668629999,1,3,USD,No,Thumbnail,None,1041,Monthly,450,Austin,TX,30.3054,-97.7497,1577359662
5668629706,1,1,USD,No,Thumbnail,None,1740,Monthly,931,Austin,TX,30.3054,-97.7497,1577359638
5668629615,1,1,USD,No,Thumbnail,None,1231,Monthly,652,Cedar Park,TX,30.4973,-97.8276,1577359630
5668629173,2,4,USD,No,Thumbnail,Cats+Dogs,1095,Monthly,1584,Kansas City,MO,39.0744,-94.5521,1577359598
5668629000,1,0,USD,No,Thumbnail,Cats+Dogs,1299,Monthly,243,Seattle,WA,47.6160,-122.3275,1577359586
5668628991,1,1,USD,No,Thumbnail,Cats+Dogs,1789,Monthly,678,Dallas,TX,32.8212,-96.7853,1577359585
5668628774,1,2,USD,No,Thumbnail,None,1040,Monthly,700,University Place,WA,47.2334,-122.5457,1577359568
5668628728,2,2,USD,No,Thumbnail,Cats+Dogs,785,Monthly,1200,Hattiesburg,MS,31.2769,-89.3049,1577359566
5668627681,1,1,USD,No,Thumbnail,None,1002,Monthly,878,Round Rock,TX,30.5118,-97.6873,1577359481
5668627076,3.5,5,USD,No,Thumbnail,Cats+Dogs,2395,Monthly,4614,Houston,TX,29.7714,-95.4343,1577359429
5668626783,2,2,USD,No,Thumbnail,Cats+Dogs,4800,Monthly,1390,San Francisco,CA,37.7599,-122.4379,1577359404
5668626585,1,2,USD,No,Thumbnail,Dogs,900,Monthly,1050,Holt,MI,42.6427,-84.5281,1577359384
5668626240,2,1,USD,No,Thumbnail,None,1743,Monthly,1130,Glen Burnie,MD,39.1634,-76.6165,1577359363
5668626180,1,1,USD,No,Thumbnail,None,1028,Monthly,542,Glen Burnie,MD,39.1634,-76.6165,1577359359
5668625716,1,1,USD,No,Thumbnail,Cats,950,Monthly,500,Madison,WI,43.0724,-89.4003,1577359333
5668625512,1,1,USD,No,Thumbnail,Cats+Dogs,840,Monthly,700,Saint Francis,WI,42.9694,-87.8732,1577359320
5668625207,1,1,USD,No,Thumbnail,Cats,1950,Monthly,1055,Dallas,TX,32.8212,-96.7853,1577359299
5668624966,1,1,USD,No,Thumbnail,Cats,826,Monthly,920,Pittsburgh,PA,40.4448,-79.9725,1577359283
5668624858,2,3,USD,No,Thumbnail,Cats+Dogs,1599,Monthly,1904,Cypress,TX,29.9972,-95.6676,1577359273
5668624057,1,1,USD,No,Thumbnail,Cats+Dogs,5000,Monthly,914,San Francisco,CA,37.7599,-122.4379,1577359212
5668623244,1,1,USD,No,Thumbnail,Cats+Dogs,875,Monthly,669,Omaha,NE,41.2562,-96.0404,1577359166
5668622956,2,2,USD,No,Thumbnail,Cats+Dogs,578,Monthly,901,Mission,TX,26.2147,-98.3516,1577359146
5668622804,2,2,USD,No,Thumbnail,Cats+Dogs,650,Monthly,955,Conway,AR,35.0673,-92.3808,1577359137
5668622153,2,4,USD,No,Thumbnail,Cats+Dogs,1625,Monthly,1684,Goodlettsville,TN,36.3245,-86.7381,1577359106
5668621321,1,2,USD,No,Thumbnail,None,600,Monthly,420,Bloomington,IN,39.1471,-86.5136,1577359051
5668621314,1,1,USD,No,Thumbnail,None,740,Monthly,600,Bloomington,IN,39.1471,-86.5136,1577359051
5668621236,1,3,USD,No,Thumbnail,Cats+Dogs,550,Monthly,470,Bloomington,IN,39.1676,-86.5000,1577359046
5668621224,1,1,USD,No,Thumbnail,None,540,Monthly,385,Bloomington,IN,39.1471,-86.5136,1577359046
5668620883,1,1,USD,No,Thumbnail,None,830,Monthly,525,Springfield,MO,37.1892,-93.2908,1577359027
5668620812,2,2,USD,No,Thumbnail,Cats+Dogs,1438,Monthly,837,Springfield,MO,37.1892,-93.2908,1577359022
5668619198,2,2,USD,No,Thumbnail,Cats+Dogs,1418,Monthly,931,Tuscaloosa,AL,33.1932,-87.5349,1577358909
5668618772,1,1,USD,No,Thumbnail,None,2075,Monthly,565,Washington,DC,38.9118,-77.0132,1577358880
5668618537,1,1,USD,No,Thumbnail,Cats+Dogs,450,Monthly,560,West Fargo,ND,46.8861,-96.9000,1577358865
5668618472,1,1,USD,No,Thumbnail,None,720,Monthly,673,Rochester,MN,44.0346,-92.4680,1577358860
5668618370,1,1,USD,No,Thumbnail,None,1099,Monthly,685,West Lafayette,IN,40.4969,-86.9659,1577358852
5668617919,1,2,USD,No,Thumbnail,Cats+Dogs,539,Monthly,815,Van Wert,OH,40.8623,-84.5874,1577358822
5668617470,2,4,USD,No,Thumbnail,Cats+Dogs,1575,Monthly,2064,Clayton,NC,35.6101,-78.4715,1577358791
5668617384,2,3,USD,No,Thumbnail,Cats+Dogs,1299,Monthly,1728,Indianapolis,IN,39.7953,-86.1387,1577358786
5668616934,2,3,USD,No,Thumbnail,Cats+Dogs,1525,Monthly,1835,Loganville,GA,33.8100,-83.8894,1577358757
5668616706,1,2,USD,No,Thumbnail,Cats+Dogs,875,Monthly,867,Tucson,AZ,32.2264,-110.9438,1577358744
5668616612,1,1,USD,No,Thumbnail,Cats+Dogs,757,Monthly,520,Omaha,NE,41.2562,-96.0404,1577358739
5668616457,1,1,USD,No,Thumbnail,None,975,Monthly,528,San Antonio,TX,29.4624,-98.5253,1577358729
5668616445,1,1,USD,No,Thumbnail,Cats+Dogs,815,Monthly,592,Grand Prairie,TX,32.7162,-97.0052,1577358729
5668616074,1,2,USD,No,Thumbnail,None,1274,Monthly,984,Forest Lake,MN,45.2764,-92.9901,1577358710
5668615861,1,2,USD,No,Thumbnail,Cats+Dogs,1230,Monthly,900,Dublin,OH,40.1100,-83.1087,1577358701
5668615760,1,1,USD,No,Thumbnail,Cats,940,Monthly,806,Pittsburgh,PA,40.4448,-79.9725,1577358696
5668615411,1,1,USD,No,Thumbnail,None,1350,Monthly,477,Portland,OR,45.5091,-122.6449,1577358676
5668615367,1,1,USD,No,Thumbnail,Cats+Dogs,734,Monthly,758,San Antonio,TX,29.4624,-98.5253,1577358673
5668615256,1,1,USD,No,Thumbnail,Cats,775,Monthly,637,Overland Park,KS,38.9259,-94.6916,1577358663
5668615033,1,1,USD,No,Thumbnail,Cats+Dogs,1400,Monthly,678,South Dartmouth,MA,41.5964,-70.9532,1577358647
5668614867,1,1,USD,No,Thumbnail,Cats+Dogs,1263,Monthly,630,Colorado Springs,CO,38.8562,-104.7720,1577358635
5668614140,1,1,USD,No,Thumbnail,Cats+Dogs,910,Monthly,644,Dallas,TX,32.8212,-96.7853,1577358580
5668613946,1,3,USD,No,Thumbnail,Cats+Dogs,1889,Monthly,561,Arlington,VA,38.8738,-77.1055,1577358566
5668612324,1,1,USD,No,Thumbnail,Cats+Dogs,1025,Monthly,566,Midland,TX,32.0057,-102.1036,1577358476
5668612083,1,1,USD,No,Thumbnail,Cats+Dogs,2749,Monthly,519,Washington,DC,38.9118,-77.0132,1577358463
5668611847,1,2,USD,No,Thumbnail,Cats+Dogs,1355,Monthly,663,Richmond,VA,37.5300,-77.4770,1577358450
5668611460,1,1,USD,No,Thumbnail,None,1710,Monthly,805,Upland,CA,34.1132,-117.6615,1577358420
5668611055,1,1,USD,No,Thumbnail,Cats+Dogs,2015,Monthly,782,Hackensack,NJ,40.8876,-74.0499,1577358389
5668610488,1,1,USD,No,Thumbnail,None,1152,Monthly,861,San Antonio,TX,29.4624,-98.5253,1577358328
5668609911,1,3,USD,No,Thumbnail,Cats+Dogs,2044,Monthly,977,Chicago,IL,41.8625,-87.6825,1577358294
5668609631,1,1,USD,No,Thumbnail,Cats+Dogs,1315,Monthly,820,Houston,TX,29.7714,-95.4343,1577358280
5668609620,1,0,USD,No,Thumbnail,Cats+Dogs,1150,Monthly,525,Houston,TX,29.7506,-95.4788,1577358279
5668609397,1,1,USD,No,Thumbnail,Cats,950,Monthly,826,Houston,TX,29.7714,-95.4343,1577358267
5668609281,1,1,USD,No,Thumbnail,Cats+Dogs,1089,Monthly,670,Houston,TX,29.7714,-95.4343,1577358260
5668609233,1,1,USD,No,Thumbnail,Cats+Dogs,1029,Monthly,759,Houston,TX,29.7714,-95.4343,1577358257
5668640287,1,4,USD,No,Thumbnail,None,2200,Monthly,1536,Columbia,MO,38.9401,-92.3167,1577360376
5668639864,2,2,USD,No,Thumbnail,Cats+Dogs,2899,Monthly,1126,Valley Village,CA,34.1656,-118.3916,1577360343
5668639010,1,1,USD,No,Thumbnail,Cats+Dogs,1350,Monthly,508,Portland,OR,45.5091,-122.6449,1577360278
5668638943,2,3,USD,No,Thumbnail,Cats+Dogs,3495,Monthly,1675,Seattle,WA,47.6160,-122.3275,1577360274
5668638523,1,1,USD,No,Thumbnail,Cats,1295,Monthly,497,Minneapolis,MN,44.9855,-93.3023,1577360243
5668638381,2.5,2,USD,No,Thumbnail,None,3300,Monthly,1302,San Jose,CA,37.3108,-121.8645,1577360231
5668638036,2.5,3,USD,No,Thumbnail,Cats+Dogs,1900,Monthly,2500,Ooltewah,TN,35.0868,-85.0599,1577360197
5668637824,1,1,USD,No,Thumbnail,None,1780,Monthly,520,Honolulu,HI,21.3155,-157.8379,1577360183
5668637408,2,4,USD,No,Thumbnail,None,1495,Monthly,1715,Yukon,OK,35.4975,-97.7329,1577360157
5668636839,1,2,USD,No,Thumbnail,Cats,1795,Monthly,900,Seattle,WA,47.6160,-122.3275,1577360135
5668636720,1,1,USD,No,Thumbnail,None,925,Monthly,600,Salt Lake City,UT,40.7061,-111.9048,1577360131
5668636220,1,2,USD,No,Thumbnail,Cats,1995,Monthly,500,Redondo Beach,CA,33.8520,-118.3759,1577360094
5668635585,2,2,USD,No,Thumbnail,Cats+Dogs,1995,Monthly,1150,Brookfield,CT,41.4682,-73.3892,1577360052
5668634944,1,2,USD,No,Thumbnail,None,565,Monthly,915,Grand Forks,ND,47.9179,-97.0658,1577360016
5668634267,1,1,USD,No,Thumbnail,Cats+Dogs,1795,Monthly,710,Milford,CT,41.2318,-73.0586,1577359971
5668633423,1,0,USD,No,Thumbnail,Dogs,925,Monthly,400,Austin,TX,30.3054,-97.7497,1577359911
5668633408,1,1,USD,No,Thumbnail,Cats+Dogs,965,Monthly,605,Grand Haven,MI,43.0367,-86.1865,1577359910
5668633288,1,3,USD,No,Thumbnail,Cats+Dogs,1945,Monthly,1089,Portland,OR,45.5091,-122.6449,1577359903
5668633094,1,1,USD,No,Thumbnail,None,1095,Monthly,644,Austin,TX,30.3054,-97.7497,1577359890
5668632836,2,3,USD,No,Thumbnail,Cats+Dogs,1399,Monthly,1372,Lubbock,TX,33.5600,-101.8904,1577359867
5668632712,1.5,2,USD,No,Thumbnail,Cats+Dogs,1009,Monthly,1138,Lady Lake,FL,28.9283,-81.9227,1577359857
5668632600,2,2,USD,No,Thumbnail,Cats+Dogs,1995,Monthly,1245,Brick,NJ,40.0711,-74.1117,1577359848
5668632567,1,1,USD,No,Thumbnail,None,1125,Monthly,600,Austin,TX,30.3054,-97.7497,1577359846
5668632375,1,1,USD,No,Thumbnail,None,1185,Monthly,686,Austin,TX,30.3054,-97.7497,1577359828
5668632323,1,1,USD,No,Thumbnail,None,890,Monthly,550,Austin,TX,30.3054,-97.7497,1577359824
5668631879,2,3,USD,No,Thumbnail,Cats+Dogs,2050,Monthly,936,Aurora,CO,39.6828,-104.8078,1577359786
5668631681,1,1,USD,No,Thumbnail,None,1126,Monthly,582,Austin,TX,30.3054,-97.7497,1577359770
5668631581,1,1,USD,No,Thumbnail,None,1080,Monthly,647,Austin,TX,30.3054,-97.7497,1577359764
5668631475,1,1,USD,No,Thumbnail,None,1060,Monthly,693,Austin,TX,30.3054,-97.7497,1577359758
5668631047,1,1,USD,No,Thumbnail,None,1100,Monthly,634,Austin,TX,30.3054,-97.7497,1577359733
5668631012,1,2,USD,No,Thumbnail,None,1246,Monthly,352,Austin,TX,30.3054,-97.7497,1577359731
5668630252,1,1,USD,No,Thumbnail,None,1225,Monthly,620,Austin,TX,30.3054,-97.7497,1577359680
5668630163,1,1,USD,No,Thumbnail,None,905,Monthly,600,Austin,TX,30.3054,-97.7497,1577359674
5668630035,3.5,3,USD,No,Thumbnail,None,2050,Monthly,1700,Leander,TX,30.5104,-97.9027,1577359665
5668629857,2,4,USD,No,Thumbnail,Cats+Dogs,1825,Monthly,2239,Mckinney,TX,33.1733,-96.6540,1577359652
5668629852,1,1,USD,No,Thumbnail,Cats,1499,Monthly,636,Seattle,WA,47.6160,-122.3275,1577359651
5668629374,1,1,USD,No,Thumbnail,None,959,Monthly,793,Austin,TX,30.3054,-97.7497,1577359612
5668628928,7,7,USD,No,Thumbnail,None,9000,Monthly,4355,Bloomington,IN,39.1471,-86.5136,1577359580
5668628739,1,3,USD,No,Thumbnail,Cats+Dogs,670,Monthly,565,Grand Forks,ND,47.9179,-97.0658,1577359566
5668628156,1,1,USD,No,Thumbnail,None,1050,Monthly,700,Austin,TX,30.3054,-97.7497,1577359525
5668627727,1,2,USD,No,Thumbnail,None,565,Monthly,850,Dayton,OH,39.7528,-84.1744,1577359485
5668627705,1,1,USD,No,Thumbnail,Cats+Dogs,1850,Monthly,900,Woodland Hills,CA,34.1677,-118.6141,1577359483
5668627552,1,1,USD,No,Thumbnail,Cats+Dogs,1039,Monthly,775,Austin,TX,30.3054,-97.7497,1577359472
5668626805,1,1,USD,No,Thumbnail,Cats+Dogs,3100,Monthly,857,San Francisco,CA,37.7599,-122.4379,1577359407
5668626201,1,1,USD,No,Thumbnail,None,1677,Monthly,723,Oxnard,CA,34.1873,-119.1738,1577359361
5668625352,2,3,USD,No,Thumbnail,Cats+Dogs,1599,Monthly,1445,Mansfield,TX,32.5807,-97.1380,1577359309
5668625256,1,2,USD,No,Thumbnail,Cats+Dogs,1242,Monthly,400,Chicago,IL,41.8625,-87.6825,1577359303
5668625240,1,2,USD,No,Thumbnail,Cats+Dogs,1755,Monthly,941,Chicago,IL,41.8625,-87.6825,1577359301
5668624591,1,1,USD,No,Thumbnail,None,900,Monthly,250,Laurel,MD,39.0976,-76.8614,1577359251
5668624357,1,1,USD,No,Thumbnail,Cats+Dogs,1295,Monthly,536,Gaithersburg,MD,39.1474,-77.2032,1577359234
5668623854,1,1,USD,No,Thumbnail,Cats+Dogs,770,Monthly,450,Kansas City,MO,39.0744,-94.5521,1577359200
5668623597,1,2,USD,No,Thumbnail,Cats+Dogs,1300,Monthly,900,Beaverton,OR,45.4851,-122.8349,1577359185
5668623224,1,2,USD,No,Thumbnail,Cats+Dogs,775,Monthly,1035,Omaha,NE,41.2562,-96.0404,1577359165
5668623032,1,1,USD,No,Thumbnail,Cats+Dogs,1200,Monthly,603,Baton Rouge,LA,30.4415,-91.1012,1577359150
5668621381,1,2,USD,No,Thumbnail,None,930,Monthly,523,Urbana,IL,40.1171,-88.1889,1577359056
5668621302,1,2,USD,No,Thumbnail,Cats+Dogs,1000,Monthly,800,Bloomington,IN,39.1471,-86.5136,1577359050
5668620079,1,1,USD,No,Thumbnail,Cats+Dogs,600,Monthly,500,Cedar Falls,IA,42.5286,-92.4509,1577358974
5668619656,1,2,USD,No,Thumbnail,Cats+Dogs,825,Monthly,456,Saint George,UT,37.0835,-113.5823,1577358942
5668618832,1,1,USD,No,Thumbnail,Cats+Dogs,690,Monthly,750,Tallahassee,FL,30.4601,-84.2714,1577358884
5668618375,3,3,USD,No,Thumbnail,None,1797,Monthly,905,West Lafayette,IN,40.4969,-86.9659,1577358852
5668617994,2,2,USD,No,Thumbnail,Cats+Dogs,1199,Monthly,895,Pendleton,IN,39.9925,-85.7729,1577358826
5668617456,2,4,USD,No,Thumbnail,Cats+Dogs,1499,Monthly,2012,Lexington,SC,33.9531,-81.2381,1577358790
5668616424,1,1,USD,No,Thumbnail,Cats,1285,Monthly,960,Fitchburg,WI,43.0152,-89.4529,1577358727
5668616077,1,3,USD,No,Thumbnail,Cats+Dogs,1338,Monthly,1022,Forest Lake,MN,45.2764,-92.9901,1577358710
5668616051,1,2,USD,No,Thumbnail,Cats+Dogs,1290,Monthly,536,Bloomington,MN,44.8338,-93.3197,1577358709
5668615706,1,2,USD,No,Thumbnail,None,2900,Monthly,1100,Culver City,CA,34.0075,-118.3941,1577358693
5668615534,1,1,USD,No,Thumbnail,Cats+Dogs,1295,Monthly,533,Portland,OR,45.5091,-122.6449,1577358683
5668615435,1,1,USD,No,Thumbnail,Cats+Dogs,1445,Monthly,833,Portland,OR,45.6037,-122.6756,1577358678
5668615239,1,1,USD,No,Thumbnail,Cats,790,Monthly,720,Overland Park,KS,38.9259,-94.6916,1577358662
5668615122,1,1,USD,No,Thumbnail,Cats+Dogs,980,Monthly,797,Indianapolis,IN,39.7953,-86.1387,1577358654
5668614771,1,1,USD,No,Thumbnail,Cats+Dogs,811,Monthly,665,Lexington,KY,38.0269,-84.4223,1577358628
5668614762,1,1,USD,No,Thumbnail,Cats+Dogs,779,Monthly,705,Lexington,KY,38.0172,-84.4931,1577358627
5668614438,1,1,USD,No,Thumbnail,Cats+Dogs,780,Monthly,620,Wilmington,NC,34.2057,-77.8894,1577358604
5668613520,1,1,USD,No,Thumbnail,Cats+Dogs,1099,Monthly,540,Orlando,FL,28.5163,-81.3644,1577358539
5668613335,2,3,USD,No,Thumbnail,Cats+Dogs,1275,Monthly,2032,Douglasville,GA,33.7218,-84.7440,1577358530
5668613174,1,2,USD,No,Thumbnail,None,1222,Monthly,310,Lowell,MA,42.6398,-71.3184,1577358523
5668612869,1,2,USD,No,Thumbnail,None,1305,Monthly,500,Upland,CA,34.1132,-117.6615,1577358507
5668611963,1,1,USD,No,Thumbnail,Cats,1937,Monthly,695,Woodland Hills,CA,34.1677,-118.6141,1577358457
5668611911,1,1,USD,No,Thumbnail,Cats,1672,Monthly,640,Denver,CO,39.7360,-104.9819,1577358454
5668611893,1,1,USD,No,Thumbnail,Cats,1141,Monthly,596,Dallas,TX,32.8212,-96.7853,1577358453
5668611760,1,2,USD,No,Thumbnail,Cats+Dogs,2145,Monthly,622,Medford,MA,42.4194,-71.1110,1577358444
5668611729,1,1,USD,No,Thumbnail,Cats+Dogs,1370,Monthly,820,Irving,TX,32.8427,-96.9607,1577358443
5668611710,1,2,USD,No,Thumbnail,Cats+Dogs,1061,Monthly,489,Dallas,TX,32.8212,-96.7853,1577358441
5668611511,1,1,USD,No,Thumbnail,Cats+Dogs,2465,Monthly,685,Los Angeles,CA,34.0372,-118.2972,1577358425
5668610972,2,4,USD,No,Thumbnail,Cats+Dogs,1249,Monthly,1600,Lexington,SC,33.9531,-81.2381,1577358379
5668610734,2,4,USD,No,Thumbnail,Cats+Dogs,1899,Monthly,1962,Glenn Heights,TX,32.5252,-96.8173,1577358352
5668610317,1,2,USD,No,Thumbnail,Cats,2040,Monthly,975,Chicago,IL,41.8625,-87.6825,1577358315
5668609854,1,2,USD,No,Thumbnail,None,1225,Monthly,995,Forest Lake,MN,45.2764,-92.9901,1577358292
5668609446,1,1,USD,No,Thumbnail,Cats,1060,Monthly,1003,Houston,TX,29.7714,-95.4343,1577358270
5668609140,1,1,USD,No,Thumbnail,Cats+Dogs,1261,Monthly,643,Houston,TX,29.7714,-95.4343,1577358251
5668609131,1,1,USD,No,Thumbnail,Cats+Dogs,932,Monthly,675,Houston,TX,29.7714,-95.4343,1577358250
5668640066,3.5,3,USD,No,Thumbnail,Cats+Dogs,1900,Monthly,1911,Houston,TX,29.7714,-95.4343,1577360360
5668639888,2,2,USD,No,Thumbnail,Cats+Dogs,2977,Monthly,1031,Los Angeles,CA,34.0372,-118.2972,1577360345
5668638785,1,2,USD,No,Thumbnail,Cats,1275,Monthly,700,Chicago,IL,41.8625,-87.6825,1577360262
5668638111,1.5,2,USD,No,Thumbnail,Cats+Dogs,1499,Monthly,1000,West Linn,OR,45.3672,-122.6496,1577360203
5668637836,2.5,3,USD,No,Thumbnail,Cats+Dogs,1599,Monthly,1705,American Fork,UT,40.4192,-111.5653,1577360184
5668636782,1,1,USD,No,Thumbnail,Cats+Dogs,880,Monthly,520,Colorado Springs,CO,38.8562,-104.7720,1577360133
5668636698,2,2,USD,No,Thumbnail,None,11000,Monthly,1322,Coronado,CA,32.6596,-117.1595,1577360129
5668636694,3,3,USD,No,Thumbnail,None,4500,Monthly,2100,Coronado,CA,32.6596,-117.1595,1577360129
5668636216,1,0,USD,No,Thumbnail,None,1345,Monthly,600,Washington,DC,38.9118,-77.0132,1577360093
5668635909,1,1,USD,No,Thumbnail,Cats+Dogs,1295,Monthly,640,Minnetonka,MN,44.9235,-93.4704,1577360074
5668635728,1,2,USD,No,Thumbnail,None,725,Monthly,850,Grand Forks,ND,47.9179,-97.0658,1577360061
5668635322,1,2,USD,No,Thumbnail,None,1845,Monthly,861,La Mesa,CA,32.7685,-117.0046,1577360037
5668635307,2.5,3,USD,No,Thumbnail,Cats+Dogs,2000,Monthly,2000,Auburn,AL,32.5975,-85.4777,1577360037
5668635277,2,4,USD,No,Thumbnail,Dogs,1750,Monthly,1980,Rapid City,SD,44.0763,-103.2121,1577360035
5668635068,1,1,USD,No,Thumbnail,Cats+Dogs,1449,Monthly,605,Portland,OR,45.5091,-122.6449,1577360024
5668635022,1,2,USD,No,Thumbnail,Cats+Dogs,1270,Monthly,441,Portland,OR,45.5091,-122.6449,1577360021
5668634880,1,2,USD,No,Thumbnail,Cats+Dogs,1235,Monthly,1080,Chattanooga,TN,35.0462,-85.2352,1577360013
5668634478,1,1,USD,No,Thumbnail,Cats+Dogs,960,Monthly,593,Tempe,AZ,33.3772,-111.9248,1577359988
5668634040,1,1,USD,No,Thumbnail,None,1500,Monthly,850,Crozet,VA,38.0692,-78.7023,1577359952
5668633899,2,3,USD,No,Thumbnail,Cats+Dogs,2895,Monthly,1562,Portland,OR,45.5091,-122.6449,1577359942
5668633756,2,2,USD,No,Thumbnail,None,920,Monthly,960,Bismarck,ND,46.8013,-100.7562,1577359930
5668633399,1,1,USD,No,Thumbnail,None,685,Monthly,640,Grand Forks,ND,47.9179,-97.0658,1577359910
5668633383,1,1,USD,No,Thumbnail,Cats+Dogs,1860,Monthly,672,Austin,TX,30.3054,-97.7497,1577359909
5668633231,1,1,USD,No,Thumbnail,Cats+Dogs,2290,Monthly,789,Los Angeles,CA,34.0372,-118.2972,1577359899
5668633097,1,1,USD,No,Thumbnail,None,1668,Monthly,592,Austin,TX,30.3054,-97.7497,1577359891
5668633031,1,2,USD,No,Thumbnail,Cats+Dogs,1350,Monthly,1207,Woodbury,MN,44.9032,-92.9227,1577359885
5668632985,1,1,USD,No,Thumbnail,Cats+Dogs,1250,Monthly,538,Portland,OR,45.5091,-122.6449,1577359880
5668632913,1,2,USD,No,Thumbnail,Cats+Dogs,1925,Monthly,875,Wayne,PA,40.0366,-75.3801,1577359875
5668632656,1,1,USD,No,Thumbnail,Cats+Dogs,1525,Monthly,790,Mendota Heights,MN,44.8893,-93.1153,1577359853
5668631969,2.5,4,USD,No,Thumbnail,Cats+Dogs,1595,Monthly,1738,Trenton,OH,39.4710,-84.4576,1577359793
5668631765,1,1,USD,No,Thumbnail,None,1176,Monthly,608,Austin,TX,30.3054,-97.7497,1577359776
5668631364,1,1,USD,No,Thumbnail,None,926,Monthly,481,Austin,TX,30.3054,-97.7497,1577359752
5668630686,1.5,3,USD,No,Thumbnail,Cats+Dogs,1635,Monthly,949,Cincinnati,OH,39.1679,-84.4933,1577359711
5668630663,1,1,USD,No,Thumbnail,None,1275,Monthly,625,Austin,TX,30.3054,-97.7497,1577359710
5668630583,2,3,USD,No,Thumbnail,None,2145,Monthly,1440,Pflugerville,TX,30.4433,-97.6282,1577359705
5668630515,1,1,USD,No,Thumbnail,None,1483,Monthly,650,Detroit,MI,42.3882,-83.1122,1577359702
5668630398,1,1,USD,No,Thumbnail,Cats+Dogs,1735,Monthly,819,Austin,TX,30.3054,-97.7497,1577359693
5668629911,2,3,USD,No,Thumbnail,Cats+Dogs,1499,Monthly,1110,Sarasota,FL,27.3181,-82.4987,1577359656
5668629880,1,1,USD,No,Thumbnail,None,1399,Monthly,790,Seattle,WA,47.6160,-122.3275,1577359654
5668629876,1,3,USD,No,Thumbnail,None,1395,Monthly,1400,Philadelphia,PA,40.0054,-75.1415,1577359653
5668629467,1,1,USD,No,Thumbnail,Cats+Dogs,1686,Monthly,847,Dallas,TX,32.8212,-96.7853,1577359618
5668629250,2,2,USD,No,Thumbnail,None,1149,Monthly,994,Austin,TX,30.3054,-97.7497,1577359603
5668628790,1.5,2,USD,No,Thumbnail,None,1000,Monthly,815,Colorado Springs,CO,38.8562,-104.7720,1577359569
5668628546,1,1,USD,No,Thumbnail,Cats+Dogs,919,Monthly,815,Hope Mills,NC,34.9674,-78.9450,1577359552
5668628358,2,5,USD,No,Thumbnail,None,7400,Monthly,1170,San Francisco,CA,37.7599,-122.4379,1577359542
5668628290,1,1,USD,No,Thumbnail,None,1000,Monthly,690,Austin,TX,30.3054,-97.7497,1577359537
5668628133,1,1,USD,No,Thumbnail,None,895,Monthly,447,Georgetown,TX,30.6505,-97.6809,1577359524
5668628050,1,1,USD,No,Thumbnail,Cats+Dogs,825,Monthly,578,Omaha,NE,41.2562,-96.0404,1577359517
5668628026,2,3,USD,No,Thumbnail,Cats+Dogs,1650,Monthly,1384,Gardendale,AL,33.6683,-86.8252,1577359515
5668627312,1,4,USD,No,Thumbnail,None,3175,Monthly,1500,Allston,MA,42.3584,-71.1318,1577359450
5668627218,2,2,USD,No,Thumbnail,Cats+Dogs,5995,Monthly,1300,West Hollywood,CA,34.0948,-118.3699,1577359440
5668627169,1,2,USD,No,Thumbnail,None,1150,Monthly,950,Ferndale,MI,42.4583,-83.1380,1577359436
5668627134,4,4,USD,No,Thumbnail,None,1795,Monthly,3208,Norwich,OH,39.9955,-81.8023,1577359433
5668626950,2,4,USD,No,Thumbnail,Cats+Dogs,3400,Monthly,2083,Denver,CO,39.7360,-104.9819,1577359419
5668626706,1.5,1,USD,No,Thumbnail,None,2350,Monthly,880,Miami,FL,25.7603,-80.3005,1577359395
5668626571,1.5,2,USD,No,Thumbnail,Cats+Dogs,1450,Monthly,1150,Phoenix,AZ,33.5178,-112.0848,1577359383
5668626424,1,1,USD,No,Thumbnail,None,2599,Monthly,900,Los Angeles,CA,34.0372,-118.2972,1577359373
5668625609,1,1,USD,No,Thumbnail,None,1510,Monthly,660,Anaheim,CA,33.8323,-117.9079,1577359328
5668625393,2,4,USD,No,Thumbnail,Cats+Dogs,1500,Monthly,1968,Ames,IA,42.0259,-93.6516,1577359311
5668625196,1,1,USD,No,Thumbnail,Cats+Dogs,845,Monthly,476,Dallas,TX,32.8212,-96.7853,1577359299
5668625140,1,0,USD,No,Thumbnail,Cats+Dogs,1240,Monthly,341,Tempe,AZ,33.3898,-111.9272,1577359295
5668625050,1,1,USD,No,Thumbnail,Cats+Dogs,1470,Monthly,687,Saint Paul,MN,44.9405,-93.1027,1577359289
5668624654,2,3,USD,No,Thumbnail,Cats+Dogs,1349,Monthly,1192,Houston,TX,29.7714,-95.4343,1577359256
5668624256,2,3,USD,No,Thumbnail,Cats+Dogs,1299,Monthly,1224,Woodstock,GA,34.1216,-84.5150,1577359227
5668623923,1,1,USD,No,Thumbnail,None,650,Monthly,250,Baltimore,MD,39.3191,-76.6126,1577359203
5668623870,1,1,USD,No,Thumbnail,Cats+Dogs,766,Monthly,450,Kansas City,MO,39.0744,-94.5521,1577359200
5668623812,1,2,USD,No,Thumbnail,Cats+Dogs,775,Monthly,900,Kansas City,MO,39.0744,-94.5521,1577359197
5668623765,1,1,USD,No,Thumbnail,Cats+Dogs,575,Monthly,615,Kansas City,KS,39.1103,-94.7020,1577359195
5668623604,1,1,USD,No,Thumbnail,Cats+Dogs,1275,Monthly,502,Portland,OR,45.5091,-122.6449,1577359185
5668623516,1,3,USD,No,Thumbnail,None,1236,Monthly,615,San Antonio,TX,29.4624,-98.5253,1577359180
5668623213,1,2,USD,No,Thumbnail,None,1240,Monthly,750,Omaha,NE,41.2562,-96.0404,1577359164
5668622498,1,1,USD,No,Thumbnail,None,1000,Monthly,775,San Antonio,TX,29.4624,-98.5253,1577359123
5668622383,1,1,USD,No,Thumbnail,Cats+Dogs,850,Monthly,650,Cincinnati,OH,39.1679,-84.4933,1577359118
5668622064,1,1,USD,No,Thumbnail,Cats+Dogs,831,Monthly,707,Oklahoma City,OK,35.4710,-97.5299,1577359101
5668621941,1,1,USD,No,Thumbnail,Cats+Dogs,795,Monthly,727,Buffalo,NY,42.9112,-78.8171,1577359092
5668621292,1,1,USD,No,Thumbnail,Cats+Dogs,700,Monthly,800,Bloomington,IN,39.1471,-86.5136,1577359049
5668620905,1,3,USD,No,Thumbnail,Cats+Dogs,615,Monthly,487,Springfield,MO,37.1892,-93.2908,1577359028
5668620894,1,3,USD,No,Thumbnail,Cats+Dogs,555,Monthly,500,Springfield,MO,37.1892,-93.2908,1577359027
5668620807,1,1,USD,No,Thumbnail,Cats+Dogs,580,Monthly,550,Springfield,MO,37.1892,-93.2908,1577359022
5668620767,1,1,USD,No,Thumbnail,Cats+Dogs,940,Monthly,672,Reno,NV,39.5197,-119.8342,1577359019
5668619714,1,1,USD,No,Thumbnail,None,535,Monthly,650,Litchfield,MI,42.0353,-84.7649,1577358946
5668619471,1,1,USD,No,Thumbnail,Cats+Dogs,729,Monthly,704,Evansville,IN,37.9906,-87.5563,1577358928
5668619448,1,1,USD,No,Thumbnail,Cats+Dogs,754,Monthly,544,Lincoln,NE,40.8062,-96.6778,1577358927
5668619433,1,1,USD,No,Thumbnail,Cats+Dogs,850,Monthly,837,Lincoln,NE,40.8062,-96.6778,1577358926
5668619381,1,1,USD,No,Thumbnail,Cats,822,Monthly,507,Lubbock,TX,33.5859,-101.8698,1577358922
5668619270,1,1,USD,No,Thumbnail,Cats+Dogs,810,Monthly,956,Sioux Falls,SD,43.5329,-96.7265,1577358914
5668619053,1,2,USD,No,Thumbnail,Cats+Dogs,712,Monthly,600,Urbana,IL,40.1171,-88.1889,1577358898
5668618611,1,2,USD,No,Thumbnail,Cats+Dogs,902,Monthly,1072,Appleton,WI,44.2745,-88.4153,1577358870
5668618295,1,1,USD,No,Thumbnail,None,999,Monthly,668,West Lafayette,IN,40.4969,-86.9659,1577358847
5668618203,2,3,USD,No,Thumbnail,None,2010,Monthly,1000,West Lafayette,IN,40.4969,-86.9659,1577358841
5668618073,1,2,USD,No,Thumbnail,Cats+Dogs,870,Monthly,900,Lafayette,IN,40.3613,-86.9005,1577358831
5668618056,1,1,USD,No,Thumbnail,Cats+Dogs,975,Monthly,749,Elkhart,IN,41.6776,-85.9695,1577358830
5668618029,2,2,USD,No,Thumbnail,Cats+Dogs,1320,Monthly,1099,Winchester,VA,39.1790,-78.1591,1577358828
5668617516,1,4,USD,No,Thumbnail,Cats+Dogs,1100,Monthly,1400,Manhattan,KS,39.1984,-96.6052,1577358795
5668617133,1,1,USD,No,Thumbnail,Cats+Dogs,1073,Monthly,784,Concord,NC,35.4047,-80.6098,1577358772
5668616902,1,1,USD,No,Thumbnail,Cats+Dogs,900,Monthly,680,Las Vegas,NV,36.1554,-115.1733,1577358756
5668616773,1,1,USD,No,Thumbnail,Cats+Dogs,1202,Monthly,757,Birmingham,AL,33.5137,-86.7893,1577358748
5668616640,1,1,USD,No,Thumbnail,Cats+Dogs,830,Monthly,801,Broken Arrow,OK,36.0341,-95.7854,1577358741
5668616400,1,3,USD,No,Thumbnail,None,1095,Monthly,840,Madison,WI,43.0724,-89.4003,1577358726
5668616326,4,8,USD,No,Thumbnail,None,8345,Monthly,4900,Madison,WI,43.0724,-89.4003,1577358721
5668616001,2,2,USD,No,Thumbnail,Cats+Dogs,1865,Monthly,979,Minneapolis,MN,44.9855,-93.3023,1577358707
5668615523,1,0,USD,No,Thumbnail,Cats+Dogs,1295,Monthly,445,Portland,OR,45.5091,-122.6449,1577358682
5668615249,1,2,USD,No,Thumbnail,Cats+Dogs,805,Monthly,422,Kansas City,MO,39.0640,-94.5815,1577358663
5668615119,1,1,USD,No,Thumbnail,Cats+Dogs,935,Monthly,705,Fishers,IN,39.9600,-85.9837,1577358653
5668614981,1,1,USD,No,Thumbnail,Cats+Dogs,615,Monthly,660,Memphis,TN,35.1211,-89.9517,1577358643
5668614931,1,2,USD,No,Thumbnail,Cats+Dogs,770,Monthly,871,Oklahoma City,OK,35.4710,-97.5299,1577358640
5668614900,1,2,USD,No,Thumbnail,Cats+Dogs,1185,Monthly,488,Salt Lake City,UT,40.7061,-111.9048,1577358638
5668614794,2,2,USD,No,Thumbnail,Cats+Dogs,1185,Monthly,1200,Chattanooga,TN,35.0810,-85.2968,1577358629
5668614767,1,1,USD,No,Thumbnail,Cats+Dogs,499,Monthly,250,Frankfort,KY,38.2006,-84.9469,1577358627
5668614723,1,2,USD,No,Thumbnail,Cats+Dogs,1300,Monthly,833,Reno,NV,39.5235,-119.8016,1577358624
5668614354,1,1,USD,No,Thumbnail,Cats+Dogs,1775,Monthly,715,Plymouth,MA,41.8729,-70.6414,1577358597
5668614303,1,2,USD,No,Thumbnail,Cats,1755,Monthly,470,Chicago,IL,41.8890,-87.6336,1577358593
5668614151,2,2,USD,No,Thumbnail,Cats,1301,Monthly,980,Plano,TX,33.0476,-96.7467,1577358580
5668613999,1,1,USD,No,Thumbnail,Cats+Dogs,1258,Monthly,689,Baytown,TX,29.7864,-94.9631,1577358570
5668613646,1,2,USD,No,Thumbnail,Cats+Dogs,1089,Monthly,611,Atlanta,GA,33.8007,-84.4083,1577358547
5668613569,1,1,USD,No,Thumbnail,Cats+Dogs,2000,Monthly,701,San Ramon,CA,37.7547,-121.9529,1577358542
5668612785,1,1,USD,No,Thumbnail,Cats+Dogs,1735,Monthly,685,Seattle,WA,47.6160,-122.3275,1577358501
5668612722,2,2,USD,No,Thumbnail,Cats+Dogs,1435,Monthly,1057,Bothell,WA,47.7974,-122.2037,1577358497
5668612345,1,1,USD,No,Thumbnail,Cats+Dogs,1130,Monthly,638,Midland,TX,32.0057,-102.1036,1577358477
5668612094,1,1,USD,No,Thumbnail,Cats,2695,Monthly,629,Boston,MA,42.3310,-71.0434,1577358464
5668611765,1,1,USD,No,Thumbnail,Cats+Dogs,1656,Monthly,802,Denver,CO,39.7360,-104.9819,1577358445
5668611433,1,1,USD,No,Thumbnail,Cats,819,Monthly,500,Fort Worth,TX,32.7407,-97.3394,1577358419
5668611375,1,1,USD,No,Thumbnail,Cats+Dogs,1110,Monthly,752,Phoenix,AZ,33.5178,-112.0848,1577358414
5668611349,1,1,USD,No,Thumbnail,Cats+Dogs,900,Monthly,621,Phoenix,AZ,33.5178,-112.0848,1577358411
5668611010,1,1,USD,No,Thumbnail,Cats,674,Monthly,505,Houston,TX,29.7714,-95.4343,1577358384
5668610908,2,4,USD,No,Thumbnail,Cats+Dogs,1525,Monthly,1980,Indianapolis,IN,39.7953,-86.1387,1577358370
5668610793,2,3,USD,No,Thumbnail,Cats+Dogs,1449,Monthly,1364,Burleson,TX,32.5285,-97.3119,1577358357
5668609966,1,1,USD,No,Thumbnail,Cats+Dogs,879,Monthly,800,Little Rock,AR,34.7264,-92.3480,1577358297
5668609773,1,1,USD,No,Thumbnail,Cats+Dogs,848,Monthly,702,Houston,TX,29.7714,-95.4343,1577358288
5668609359,1,1,USD,No,Thumbnail,Cats,1000,Monthly,1017,Houston,TX,29.7714,-95.4343,1577358264
5668609084,1,1,USD,No,Thumbnail,None,950,Monthly,722,Sugar Land,TX,29.6015,-95.6306,1577358248
5668254891,1,2,USD,No,Thumbnail,0,850,Monthly,700,Fort Pierce,FL,27.4229,-80.3552,1577309932
5668640022,1,1,USD,No,Thumbnail,Cats+Dogs,695,Monthly,675,Waterloo,IA,42.4869,-92.3426,1577360356
5668639582,1,2,USD,No,Thumbnail,Cats+Dogs,749,Monthly,800,Oklahoma City,OK,35.4710,-97.5299,1577360325
5668639243,1,1,USD,No,Thumbnail,None,995,Monthly,550,Denver,CO,39.7360,-104.9819,1577360298
5668639023,1,1,USD,No,Thumbnail,Cats+Dogs,425,Monthly,656,Johnson City,TN,36.3317,-82.3837,1577360279
5668638348,1,1,USD,No,Thumbnail,None,947,Monthly,560,Albany,NY,42.6742,-73.7936,1577360228
5668638108,2,2,USD,No,Thumbnail,Cats+Dogs,1500,Monthly,1195,Brunswick,OH,41.2473,-81.8259,1577360203
5668637153,1,1,USD,No,Thumbnail,Cats+Dogs,850,Monthly,672,Austin,TX,30.3054,-97.7497,1577360146
5668636890,1.5,1,USD,No,Thumbnail,None,1750,Monthly,800,Philadelphia,PA,40.0054,-75.1415,1577360137
5668636552,1,1,USD,No,Thumbnail,Cats+Dogs,1395,Monthly,643,Long Beach,CA,33.8056,-118.1696,1577360118
5668636449,1.5,2,USD,No,Thumbnail,Cats,1250,Monthly,900,Bellingham,WA,48.7871,-122.4437,1577360111
5668635878,1,1,USD,No,Thumbnail,Cats+Dogs,1325,Monthly,850,Milwaukee,WI,43.0531,-87.9659,1577360072
5668635437,1,2,USD,No,Thumbnail,None,995,Monthly,1000,Selah,WA,46.6925,-120.5550,1577360043
5668635375,1,2,USD,No,Thumbnail,Cats+Dogs,975,Monthly,870,Mission,KS,39.0269,-94.6516,1577360040
5668635014,1,1,USD,No,Thumbnail,None,525,Monthly,550,Grand Forks,ND,47.9179,-97.0658,1577360020
5668634511,2,1,USD,No,Thumbnail,None,2200,Monthly,1428,Boise,ID,43.6046,-116.2475,1577359990
5668634460,1,1,USD,No,Thumbnail,Cats+Dogs,829,Monthly,375,Phoenix,AZ,33.5178,-112.0848,1577359986
5668634269,1,1,USD,No,Thumbnail,Cats+Dogs,1840,Monthly,709,Milford,CT,41.2318,-73.0586,1577359972
5668633859,2,3,USD,No,Thumbnail,Cats+Dogs,1775,Monthly,1233,Irondale,AL,33.5407,-86.6852,1577359939
5668633216,1,1,USD,No,Thumbnail,Cats+Dogs,935,Monthly,700,Saint Paul,MN,44.9405,-93.1027,1577359898
5668633139,1,2,USD,No,Thumbnail,None,1399,Monthly,416,Austin,TX,30.3054,-97.7497,1577359894
5668633019,1,1,USD,No,Thumbnail,Cats+Dogs,771,Monthly,739,Sioux Falls,SD,43.5329,-96.7265,1577359883
5668632844,1,3,USD,No,Thumbnail,Cats+Dogs,1045,Monthly,2048,Minot,ND,48.2469,-101.3017,1577359868
5668632790,2,2,USD,No,Thumbnail,Cats+Dogs,949,Monthly,1295,Jacksonville,FL,30.2989,-81.6324,1577359863
5668632533,1,3,USD,No,Thumbnail,None,1270,Monthly,599,Austin,TX,30.3054,-97.7497,1577359843
5668632182,1,1,USD,No,Thumbnail,Cats+Dogs,995,Monthly,700,Springfield,MO,37.1892,-93.2908,1577359812
5668632109,1,2,USD,No,Thumbnail,Cats+Dogs,1550,Monthly,825,Austin,TX,30.3054,-97.7497,1577359806
5668631976,1,2,USD,No,Thumbnail,Cats+Dogs,3199,Monthly,1050,Berkeley,CA,37.8726,-122.2707,1577359794
5668631741,1,1,USD,No,Thumbnail,None,849,Monthly,597,Georgetown,TX,30.6505,-97.6809,1577359774
5668631695,1,2,USD,No,Thumbnail,None,1399,Monthly,529,Austin,TX,30.3054,-97.7497,1577359771
5668631577,1,2,USD,No,Thumbnail,None,1157,Monthly,980,Austin,TX,30.3054,-97.7497,1577359764
5668631420,1,1,USD,No,Thumbnail,None,1150,Monthly,581,Austin,TX,30.3054,-97.7497,1577359755
5668630989,1,1,USD,No,Thumbnail,None,899,Monthly,620,Austin,TX,30.3054,-97.7497,1577359730
5668630787,1,1,USD,No,Thumbnail,None,999,Monthly,547,Austin,TX,30.3054,-97.7497,1577359718
5668630259,1,1,USD,No,Thumbnail,Cats+Dogs,755,Monthly,566,Houston,TX,29.7714,-95.4343,1577359681
5668630197,2,3,USD,No,Thumbnail,Cats,1150,Monthly,1287,Cincinnati,OH,39.1679,-84.4933,1577359677
5668630139,1,1,USD,No,Thumbnail,Cats+Dogs,1170,Monthly,587,San Antonio,TX,29.4624,-98.5253,1577359672
5668630069,1,1,USD,No,Thumbnail,None,850,Monthly,520,Austin,TX,30.3054,-97.7497,1577359667
5668629975,1,1,USD,No,Thumbnail,None,955,Monthly,484,Austin,TX,30.3054,-97.7497,1577359661
5668629830,1,2,USD,No,Thumbnail,Cats,1949,Monthly,955,Seattle,WA,47.6160,-122.3275,1577359650
5668629166,1,3,USD,No,Thumbnail,Cats+Dogs,950,Monthly,884,Kansas City,MO,39.0744,-94.5521,1577359598
5668628429,2,3,USD,No,Thumbnail,None,4195,Monthly,2562,Livermore,CA,37.6812,-121.7519,1577359545
5668628347,1,2,USD,No,Thumbnail,Cats+Dogs,1349,Monthly,325,Chicago,IL,41.8625,-87.6825,1577359541
5668628335,1,2,USD,No,Thumbnail,Cats+Dogs,1500,Monthly,900,Tampa,FL,28.0076,-82.4792,1577359540
5668628145,2,2,USD,No,Thumbnail,Cats+Dogs,2900,Monthly,1017,Kaneohe,HI,21.4199,-157.8117,1577359524
5668628117,1,1,USD,No,Thumbnail,None,1195,Monthly,550,Austin,TX,30.3054,-97.7497,1577359523
5668628030,1,1,USD,No,Thumbnail,Cats+Dogs,820,Monthly,953,Mandan,ND,46.8296,-100.8908,1577359515
5668627995,2.5,2,USD,No,Thumbnail,Dogs,1000,Monthly,1152,Lynchburg,VA,37.3961,-79.1892,1577359510
5668627992,1,1,USD,No,Thumbnail,Cats+Dogs,965,Monthly,613,San Antonio,TX,29.4624,-98.5253,1577359509
5668627912,3.5,3,USD,No,Thumbnail,Cats+Dogs,2900,Monthly,4408,Bella Vista,AR,36.4616,-94.2604,1577359502
5668627675,2,2,USD,No,Thumbnail,Cats+Dogs,919,Monthly,1000,Traverse City,MI,44.7658,-85.6549,1577359481
5668627626,1,2,USD,No,Thumbnail,Cats+Dogs,2195,Monthly,989,Westlake Village,CA,34.1669,-118.8377,1577359478
5668627534,1,1,USD,No,Thumbnail,Cats,1460,Monthly,600,Chicago,IL,41.8625,-87.6825,1577359471
5668627377,1,1,USD,No,Thumbnail,Cats+Dogs,1265,Monthly,903,Austin,TX,30.3054,-97.7497,1577359456
5668627323,2.5,5,USD,No,Thumbnail,Cats+Dogs,2995,Monthly,2751,Yakima,WA,46.5990,-120.5572,1577359451
5668626845,1,1,USD,No,Thumbnail,None,1850,Monthly,900,Sunnyvale,CA,37.3695,-122.0241,1577359411
5668626525,2,2,USD,No,Thumbnail,Cats+Dogs,799,Monthly,1056,Gardner,IL,41.1691,-88.3203,1577359379
5668626451,1,2,USD,No,Thumbnail,Cats+Dogs,1700,Monthly,800,Philadelphia,PA,40.0054,-75.1415,1577359374
5668626288,1,5,USD,No,Thumbnail,None,1000,Monthly,1500,Allendale,MI,42.9721,-85.9328,1577359365
5668625740,3,4,USD,No,Thumbnail,Cats+Dogs,1799,Monthly,2106,Charlotte,NC,35.2016,-80.8124,1577359334
5668625658,1,1,USD,No,Thumbnail,Cats+Dogs,585,Monthly,820,Green Bay,WI,44.5099,-88.0178,1577359330
5668625414,1,1,USD,No,Thumbnail,Cats+Dogs,590,Monthly,748,Hot Springs,AR,34.4637,-93.0653,1577359313
5668625017,2,2,USD,No,Thumbnail,None,1612,Monthly,792,Saint Paul,MN,44.9702,-93.2071,1577359286
5668624886,2,2,USD,No,Thumbnail,Cats+Dogs,2760,Monthly,1050,Los Angeles,CA,34.0372,-118.2972,1577359276
5668624401,2,3,USD,No,Thumbnail,Cats+Dogs,1449,Monthly,1555,Ruskin,FL,27.7164,-82.4294,1577359237
5668624253,1,1,USD,No,Thumbnail,None,700,Monthly,300,Stockbridge,GA,33.5571,-84.2167,1577359227
5668624198,2,3,USD,No,Thumbnail,Cats+Dogs,1299,Monthly,1400,Snellville,GA,33.8427,-84.0113,1577359222
5668623579,1,1,USD,No,Thumbnail,Cats+Dogs,1269,Monthly,850,Gladstone,OR,45.3906,-122.5887,1577359184
5668623276,1,1,USD,No,Thumbnail,Cats+Dogs,1670,Monthly,931,Danbury,CT,41.4029,-73.4637,1577359168
5668623201,1,1,USD,No,Thumbnail,Cats+Dogs,895,Monthly,720,Omaha,NE,41.2562,-96.0404,1577359163
5668623062,1,1,USD,No,Thumbnail,Cats,994,Monthly,512,Baton Rouge,LA,30.4415,-91.1012,1577359152
5668622893,1,1,USD,No,Thumbnail,None,2395,Monthly,458,San Francisco,CA,37.7599,-122.4379,1577359142
5668622807,1,1,USD,No,Thumbnail,None,625,Monthly,250,Venice,FL,27.0717,-82.3833,1577359138
5668622654,2,2,USD,No,Thumbnail,Cats+Dogs,1465,Monthly,1327,West Haven,UT,41.2205,-112.0172,1577359130
5668622127,2,2,USD,No,Thumbnail,Cats+Dogs,1359,Monthly,1204,Antioch,TN,36.0402,-86.6385,1577359105
5668622113,1,1,USD,No,Thumbnail,Cats+Dogs,698,Monthly,775,Hampton,VA,37.0451,-76.3664,1577359104
5668622025,1,1,USD,No,Thumbnail,None,865,Monthly,400,West Hartford,CT,41.7609,-72.7477,1577359098
5668621702,1,1,USD,No,Thumbnail,None,925,Monthly,485,Champaign,IL,40.1145,-88.2723,1577359077
5668621076,2,2,USD,No,Thumbnail,Cats+Dogs,739,Monthly,774,Fayetteville,AR,36.0785,-94.1531,1577359037
5668620590,1,1,USD,No,Thumbnail,None,575,Monthly,250,Coatesville,PA,39.9849,-75.8127,1577359007
5668620342,1,1,USD,No,Thumbnail,Cats+Dogs,625,Monthly,770,Bloomington,IL,40.4775,-88.9786,1577358992
5668619634,1,1,USD,No,Thumbnail,None,600,Monthly,250,Spring Hill,FL,28.4730,-82.5474,1577358940
5668618785,1,2,USD,No,Thumbnail,None,1895,Monthly,433,Washington,DC,38.9118,-77.0132,1577358881
5668618551,2,2,USD,No,Thumbnail,None,910,Monthly,1110,Fargo,ND,46.8608,-96.8096,1577358865
5668618231,2,2,USD,No,Thumbnail,None,780,Monthly,1000,West Lafayette,IN,40.4969,-86.9659,1577358843
5668618188,1,2,USD,No,Thumbnail,None,920,Monthly,750,West Lafayette,IN,40.4969,-86.9659,1577358840
5668618081,1,2,USD,No,Thumbnail,Cats+Dogs,670,Monthly,1010,West Lafayette,IN,40.4969,-86.9659,1577358832
5668618068,1,2,USD,No,Thumbnail,Cats+Dogs,480,Monthly,342,Lafayette,IN,40.3613,-86.9005,1577358831
5668617313,2,3,USD,No,Thumbnail,Cats+Dogs,1199,Monthly,1450,Columbia,SC,34.0505,-81.0098,1577358782
5668617198,3,3,USD,No,Thumbnail,Cats+Dogs,1199,Monthly,1530,Irmo,SC,34.1190,-81.1962,1577358775
5668616950,1,2,USD,No,Thumbnail,Cats+Dogs,935,Monthly,502,Phoenix,AZ,33.5178,-112.0848,1577358759
5668616731,1,1,USD,No,Thumbnail,Cats+Dogs,560,Monthly,420,Tucson,AZ,32.2264,-110.9438,1577358746
5668616632,2,2,USD,No,Thumbnail,Cats+Dogs,2700,Monthly,1974,Danbury,CT,41.4029,-73.4637,1577358740
5668616428,2,3,USD,No,Thumbnail,Cats+Dogs,713,Monthly,1196,Cheyenne,WY,41.1555,-104.8204,1577358728
5668616256,1,1,USD,No,Thumbnail,Cats+Dogs,1049,Monthly,712,West Allis,WI,43.0042,-88.0184,1577358718
5668615104,1,1,USD,No,Thumbnail,Cats+Dogs,812,Monthly,785,Indianapolis,IN,39.7953,-86.1387,1577358652
5668614879,1,1,USD,No,Thumbnail,Cats+Dogs,1290,Monthly,728,Salt Lake City,UT,40.7061,-111.9048,1577358636
5668614782,1,2,USD,No,Thumbnail,Cats+Dogs,898,Monthly,561,Chattanooga,TN,35.0462,-85.2352,1577358629
5668614362,1,2,USD,No,Thumbnail,None,795,Monthly,888,Fargo,ND,46.8608,-96.8096,1577358598
5668614265,1,2,USD,No,Thumbnail,Cats,2075,Monthly,678,Chicago,IL,41.8625,-87.6825,1577358590
5668614256,1,1,USD,No,Thumbnail,Cats+Dogs,911,Monthly,300,Chicago,IL,41.8625,-87.6825,1577358589
5668613891,1,1,USD,No,Thumbnail,Cats+Dogs,1926,Monthly,738,Arlington,VA,38.8738,-77.1055,1577358562
5668613721,1,2,USD,No,Thumbnail,Cats+Dogs,1540,Monthly,414,Washington,DC,38.9118,-77.0132,1577358552
5668613529,1,1,USD,No,Thumbnail,Cats+Dogs,1089,Monthly,730,Orlando,FL,28.5163,-81.3644,1577358539
5668613253,1,1,USD,No,Thumbnail,Cats+Dogs,1799,Monthly,817,Weymouth,MA,42.2081,-70.9524,1577358527
5668612791,1,1,USD,No,Thumbnail,Cats+Dogs,1260,Monthly,668,Federal Way,WA,47.3071,-122.3404,1577358501
5668612545,1,1,USD,No,Thumbnail,None,1100,Monthly,400,Arvada,CO,39.8228,-105.1107,1577358487
5668612310,1,1,USD,No,Thumbnail,None,1565,Monthly,760,Odessa,TX,31.8666,-102.3901,1577358475
5668611879,1,1,USD,No,Thumbnail,Cats,1576,Monthly,747,Dallas,TX,32.8212,-96.7853,1577358452
5668611866,1,1,USD,No,Thumbnail,Cats+Dogs,1225,Monthly,569,Vancouver,WA,45.6558,-122.5888,1577358451
5668611619,1,1,USD,No,Thumbnail,Cats+Dogs,1390,Monthly,733,Salt Lake City,UT,40.7061,-111.9048,1577358435
5668611579,1,1,USD,No,Thumbnail,Cats+Dogs,1295,Monthly,690,Milwaukee,WI,43.0531,-87.9659,1577358432
5668611525,1,2,USD,No,Thumbnail,Cats+Dogs,945,Monthly,796,Baltimore,MD,39.3191,-76.6126,1577358426
5668611351,1,1,USD,No,Thumbnail,Cats+Dogs,1085,Monthly,754,Phoenix,AZ,33.5178,-112.0848,1577358411
5668611250,1,1,USD,No,Thumbnail,Cats+Dogs,920,Monthly,764,Atlanta,GA,33.7848,-84.3922,1577358404
5668611152,2,2,USD,No,Thumbnail,Cats+Dogs,1501,Monthly,1086,Liverpool,NY,43.1318,-76.2098,1577358397
5668611037,1,1,USD,No,Thumbnail,Cats+Dogs,877,Monthly,759,Missouri City,TX,29.5677,-95.5210,1577358386
5668610791,2,3,USD,No,Thumbnail,Cats+Dogs,1399,Monthly,1345,Mesquite,TX,32.7835,-96.6121,1577358357
5668610772,2,3,USD,No,Thumbnail,Cats+Dogs,1449,Monthly,1767,Spring,TX,30.0871,-95.4685,1577358355
5668610677,2,3,USD,No,Thumbnail,Cats+Dogs,1325,Monthly,1440,Houston,TX,29.7714,-95.4343,1577358346
5668610269,1,1,USD,No,Thumbnail,Cats+Dogs,959,Monthly,800,Ann Arbor,MI,42.2711,-83.7450,1577358312
5668609385,1,1,USD,No,Thumbnail,Cats+Dogs,904,Monthly,729,Sugar Land,TX,29.6015,-95.6306,1577358266
5668639793,2,2,USD,No,Thumbnail,Cats+Dogs,1825,Monthly,1324,Oakland Township,MI,42.7234,-83.1474,1577360339
5668639575,1,0,USD,No,Thumbnail,Cats+Dogs,1400,Monthly,255,Kirkland,WA,47.7046,-122.1989,1577360324
5668639549,1,1,USD,No,Thumbnail,Cats+Dogs,850,Monthly,690,De Soto,KS,38.9679,-94.9654,1577360322
5668639532,1,1,USD,No,Thumbnail,Cats+Dogs,395,Monthly,572,Red Oak,IA,41.0102,-95.2202,1577360321
5668639430,1,1,USD,No,Thumbnail,Cats+Dogs,850,Monthly,566,Omaha,NE,41.2562,-96.0404,1577360313
5668638981,1.5,2,USD,No,Thumbnail,Cats+Dogs,1975,Monthly,800,Valley Village,CA,34.1656,-118.3916,1577360277
5668638940,2.5,0,USD,No,Thumbnail,None,1950,Monthly,1575,Franklin,TN,35.9393,-86.8716,1577360274
5668638885,3,3,USD,No,Thumbnail,None,9500,Monthly,2330,Palo Alto,CA,37.4356,-122.1340,1577360270
5668637991,2,2,USD,No,Thumbnail,None,2595,Monthly,963,San Diego,CA,32.7876,-117.1265,1577360194
5668637986,2.5,3,USD,No,Thumbnail,Cats+Dogs,2575,Monthly,1760,Phoenix,AZ,33.5178,-112.0848,1577360194
5668637683,1,1,USD,No,Thumbnail,None,1796,Monthly,634,Nashville,TN,36.1370,-86.7830,1577360173
5668637293,1,1,USD,No,Thumbnail,Cats,1250,Monthly,918,Chanhassen,MN,44.8525,-93.5502,1577360152
5668636619,1,1,USD,No,Thumbnail,Cats+Dogs,2000,Monthly,604,Seattle,WA,47.6160,-122.3275,1577360124
5668636344,2.5,4,USD,No,Thumbnail,Cats+Dogs,6850,Monthly,2650,Belmont,CA,37.5173,-122.2946,1577360103
5668636339,1,3,USD,No,Thumbnail,Dogs,850,Monthly,936,Kokomo,IN,40.4738,-86.1409,1577360102
5668636287,1,1,USD,No,Thumbnail,Cats+Dogs,710,Monthly,646,San Antonio,TX,29.4624,-98.5253,1577360099
5668636049,1,3,USD,No,Thumbnail,Cats+Dogs,1150,Monthly,460,Milwaukee,WI,43.0531,-87.9659,1577360083
5668635512,1,1,USD,No,Thumbnail,Cats+Dogs,950,Monthly,850,Fort Myers,FL,26.5761,-81.8644,1577360047
5668635500,1,1,USD,No,Thumbnail,Cats+Dogs,995,Monthly,854,Elkhorn,NE,41.2715,-96.2423,1577360046
5668635390,1,1,USD,No,Thumbnail,Cats,1400,Monthly,600,Portland,OR,45.5091,-122.6449,1577360041
5668634571,1,1,USD,No,Thumbnail,None,495,Monthly,546,East Grand Forks,MN,47.9299,-97.0173,1577359995
5668634503,2,3,USD,No,Thumbnail,Cats+Dogs,1350,Monthly,1690,Fort Smith,AR,35.3580,-94.3964,1577359989
5668634329,1,2,USD,No,Thumbnail,Cats+Dogs,1269,Monthly,800,Phoenix,AZ,33.5178,-112.0848,1577359977
5668633186,1,1,USD,No,Thumbnail,None,974,Monthly,516,Austin,TX,30.3315,-97.6645,1577359897
5668633143,1,1,USD,No,Thumbnail,None,1130,Monthly,516,Austin,TX,30.3054,-97.7497,1577359894
5668632518,1,1,USD,No,Thumbnail,None,859,Monthly,533,Austin,TX,30.3054,-97.7497,1577359841
5668632377,1,2,USD,No,Thumbnail,None,1040,Monthly,400,Austin,TX,30.3054,-97.7497,1577359829
5668632295,1,1,USD,No,Thumbnail,None,980,Monthly,527,Austin,TX,30.3054,-97.7497,1577359821
5668632232,1,1,USD,No,Thumbnail,None,888,Monthly,495,Austin,TX,30.3054,-97.7497,1577359817
5668632203,1,1,USD,No,Thumbnail,None,1084,Monthly,526,Austin,TX,30.3054,-97.7497,1577359814
5668632188,1,1,USD,No,Thumbnail,None,883,Monthly,542,Austin,TX,30.3054,-97.7497,1577359813
5668631798,1,1,USD,No,Thumbnail,None,1461,Monthly,740,Austin,TX,30.2989,-97.7079,1577359779
5668631749,1,1,USD,No,Thumbnail,None,993,Monthly,648,Austin,TX,30.3054,-97.7497,1577359775
5668631496,1,1,USD,No,Thumbnail,None,1135,Monthly,672,Austin,TX,30.3054,-97.7497,1577359759
5668631349,1,1,USD,No,Thumbnail,None,1415,Monthly,668,Austin,TX,30.3054,-97.7497,1577359751
5668631074,1,1,USD,No,Thumbnail,None,1293,Monthly,651,Austin,TX,30.3054,-97.7497,1577359735
5668630933,3,4,USD,No,Thumbnail,Cats+Dogs,1775,Monthly,1804,Mason,OH,39.3446,-84.3143,1577359727
5668630682,1,1,USD,No,Thumbnail,Cats+Dogs,2255,Monthly,1073,Dallas,TX,32.8212,-96.7853,1577359711
5668630525,1,1,USD,No,Thumbnail,Cats+Dogs,1230,Monthly,592,San Antonio,TX,29.4624,-98.5253,1577359702
5668630308,1,1,USD,No,Thumbnail,Cats+Dogs,1686,Monthly,612,Austin,TX,30.3054,-97.7497,1577359685
5668630136,1,1,USD,No,Thumbnail,Cats+Dogs,1030,Monthly,527,Austin,TX,30.3054,-97.7497,1577359672
5668630083,1,1,USD,No,Thumbnail,None,1010,Monthly,659,Georgetown,TX,30.6505,-97.6809,1577359668
5668629994,1,1,USD,No,Thumbnail,None,1260,Monthly,597,Austin,TX,30.3054,-97.7497,1577359662
5668629979,1,1,USD,No,Thumbnail,None,2420,Monthly,688,Los Angeles,CA,34.0372,-118.2972,1577359661
5668629653,1,1,USD,No,Thumbnail,None,1175,Monthly,700,Phoenix,AZ,33.5178,-112.0848,1577359633
5668629580,1,2,USD,No,Thumbnail,None,850,Monthly,513,Austin,TX,30.3054,-97.7497,1577359627
5668629380,1,1,USD,No,Thumbnail,Cats+Dogs,1665,Monthly,678,Dallas,TX,32.8212,-96.7853,1577359612
5668628800,2,2,USD,No,Thumbnail,Cats+Dogs,1149,Monthly,868,Round Rock,TX,30.5118,-97.6873,1577359570
5668628724,2,2,USD,No,Thumbnail,Cats+Dogs,915,Monthly,1200,Hattiesburg,MS,31.2769,-89.3049,1577359565
5668628046,1,1,USD,No,Thumbnail,Cats+Dogs,1595,Monthly,620,Philadelphia,PA,40.0054,-75.1415,1577359517
5668627830,2,2,USD,No,Thumbnail,Cats,2025,Monthly,1200,Philadelphia,PA,40.0054,-75.1415,1577359495
5668627701,2,2,USD,No,Thumbnail,Cats+Dogs,2460,Monthly,1400,Encino,CA,34.1640,-118.4984,1577359483
5668627510,1,2,USD,No,Thumbnail,None,1233,Monthly,535,Austin,TX,30.3054,-97.7497,1577359468
5668627047,1,1,USD,No,Thumbnail,Cats+Dogs,2200,Monthly,691,San Pablo,CA,37.9724,-122.3304,1577359426
5668626751,2,2,USD,No,Thumbnail,Cats+Dogs,1950,Monthly,984,Bothell,WA,47.7974,-122.2037,1577359400
5668626523,1.5,3,USD,No,Thumbnail,Cats+Dogs,1875,Monthly,1152,Fort Collins,CO,40.5649,-105.0824,1577359379
5668626066,1,0,USD,No,Thumbnail,None,1654,Monthly,393,Washington,DC,38.9118,-77.0132,1577359354
5668625748,2,2,USD,No,Thumbnail,None,770,Monthly,1074,De Pere,WI,44.4367,-88.0697,1577359334
5668625559,1,1,USD,No,Thumbnail,Cats+Dogs,1570,Monthly,700,Minneapolis,MN,44.9855,-93.3023,1577359324
5668625234,1,1,USD,No,Thumbnail,Cats,942,Monthly,225,Chicago,IL,41.8625,-87.6825,1577359301
5668624955,1,2,USD,No,Thumbnail,None,1255,Monthly,1050,Saint Louis,MO,38.6274,-90.3040,1577359282
5668624704,2,3,USD,No,Thumbnail,Cats+Dogs,1549,Monthly,1762,Humble,TX,30.0021,-95.2555,1577359261
5668624493,1,1,USD,No,Thumbnail,Cats+Dogs,1399,Monthly,685,Everett,WA,47.9338,-122.2052,1577359244
5668624460,2,2,USD,No,Thumbnail,Dogs,1438,Monthly,932,Bothell,WA,47.7974,-122.2037,1577359242
5668624456,2,4,USD,No,Thumbnail,Cats+Dogs,1818,Monthly,1449,Lynnwood,WA,47.8318,-122.2834,1577359241
5668624110,2,2,USD,No,Thumbnail,Cats+Dogs,4895,Monthly,915,San Francisco,CA,37.7599,-122.4379,1577359216
5668623807,1,2,USD,No,Thumbnail,Cats+Dogs,1015,Monthly,713,North Kansas City,MO,39.1478,-94.5689,1577359197
5668622491,1,1,USD,No,Thumbnail,Cats+Dogs,1190,Monthly,759,Apopka,FL,28.6921,-81.5149,1577359123
5668622471,1,1,USD,No,Thumbnail,None,900,Monthly,250,Orlando,FL,28.5163,-81.3644,1577359122
5668622217,1,1,USD,No,Thumbnail,Cats+Dogs,815,Monthly,727,Tallahassee,FL,30.4601,-84.2714,1577359110
5668621349,1,2,USD,No,Thumbnail,Cats+Dogs,1120,Monthly,515,Bloomington,IN,39.1471,-86.5136,1577359053
5668621325,1,1,USD,No,Thumbnail,Cats+Dogs,850,Monthly,550,Bloomington,IN,39.1471,-86.5136,1577359051
5668620500,1,1,USD,No,Thumbnail,None,650,Monthly,250,Salem,OR,44.9545,-123.0072,1577359002
5668620355,1,2,USD,No,Thumbnail,Cats,795,Monthly,958,Saint Cloud,MN,45.5509,-94.1725,1577358993
5668620012,2,2,USD,No,Thumbnail,Cats+Dogs,1270,Monthly,1050,Cedar Falls,IA,42.5286,-92.4509,1577358970
5668619728,1,1,USD,No,Thumbnail,Cats+Dogs,930,Monthly,728,Janesville,WI,42.6808,-89.0286,1577358947
5668619624,1,1,USD,No,Thumbnail,Cats+Dogs,1375,Monthly,530,Flagstaff,AZ,35.1825,-111.6031,1577358939
5668619521,1,2,USD,No,Thumbnail,None,1670,Monthly,350,Ann Arbor,MI,42.2711,-83.7450,1577358932
5668619515,1,1,USD,No,Thumbnail,None,865,Monthly,250,Naples,FL,26.1806,-81.7257,1577358931
5668619437,1,2,USD,No,Thumbnail,Cats,985,Monthly,1080,Lincoln,NE,40.8062,-96.6778,1577358926
5668618460,2,2,USD,No,Thumbnail,Cats+Dogs,750,Monthly,880,Lafayette,IN,40.3613,-86.9005,1577358858
5668618430,1,0,USD,No,Thumbnail,None,725,Monthly,308,West Lafayette,IN,40.4969,-86.9659,1577358856
5668618344,1,1,USD,No,Thumbnail,Cats+Dogs,1049,Monthly,990,Lafayette,IN,40.3613,-86.9005,1577358850
5668618110,1,1,USD,No,Thumbnail,Cats+Dogs,635,Monthly,550,West Lafayette,IN,40.4969,-86.9659,1577358834
5668618026,1,2,USD,No,Thumbnail,Cats+Dogs,630,Monthly,800,Saint Joseph,MO,39.7600,-94.8272,1577358828
5668618016,1,1,USD,No,Thumbnail,Cats+Dogs,984,Monthly,752,Hammond,LA,30.5007,-90.4760,1577358827
5668617862,1,1,USD,No,Thumbnail,Cats,525,Monthly,640,Beaver Dam,WI,43.4614,-88.8407,1577358819
5668617857,2,3,USD,No,Thumbnail,Cats,817,Monthly,1473,Fond Du Lac,WI,43.7815,-88.4411,1577358819
5668617831,2,4,USD,No,Thumbnail,Cats+Dogs,1250,Monthly,1363,Manhattan,KS,39.1984,-96.6052,1577358817
5668617391,2,3,USD,No,Thumbnail,Cats+Dogs,1349,Monthly,2328,Camby,IN,39.6391,-86.3099,1577358786
5668617268,2,3,USD,No,Thumbnail,Cats+Dogs,1249,Monthly,1380,Noblesville,IN,40.0533,-85.9252,1577358779
5668616545,1,1,USD,No,Thumbnail,Cats+Dogs,1055,Monthly,790,Colorado Springs,CO,38.8562,-104.7720,1577358734
5668616165,1,1,USD,No,Thumbnail,Cats+Dogs,775,Monthly,608,Milwaukee,WI,43.0531,-87.9659,1577358713
5668616085,1,1,USD,No,Thumbnail,Cats+Dogs,1520,Monthly,747,Saint Louis Park,MN,44.9368,-93.3605,1577358710
5668616061,1,3,USD,No,Thumbnail,Cats+Dogs,1337,Monthly,1020,Forest Lake,MN,45.2764,-92.9901,1577358709
5668615566,1,1,USD,No,Thumbnail,Cats+Dogs,1200,Monthly,670,Denver,CO,39.7360,-104.9819,1577358685
5668615157,1,1,USD,No,Thumbnail,Cats+Dogs,930,Monthly,688,Las Vegas,NV,36.1554,-115.1733,1577358656
5668614643,1,1,USD,No,Thumbnail,Cats+Dogs,940,Monthly,544,Eagle River,AK,61.3186,-149.5355,1577358620
5668614623,1,1,USD,No,Thumbnail,Cats,790,Monthly,611,Anchorage,AK,61.1723,-149.8414,1577358619
5668614464,1,1,USD,No,Thumbnail,None,1406,Monthly,704,Broomfield,CO,39.9156,-105.0876,1577358607
5668614318,1,1,USD,No,Thumbnail,Cats+Dogs,1030,Monthly,780,Saint Cloud,MN,45.5509,-94.1725,1577358595
5668614189,1,1,USD,No,Thumbnail,Cats+Dogs,959,Monthly,561,Dallas,TX,32.8212,-96.7853,1577358584
5668614121,1,1,USD,No,Thumbnail,Cats+Dogs,1033,Monthly,651,Dallas,TX,32.8212,-96.7853,1577358578
5668614115,1,1,USD,No,Thumbnail,Cats+Dogs,850,Monthly,420,Dallas,TX,32.8212,-96.7853,1577358578
5668613918,1,1,USD,No,Thumbnail,Cats+Dogs,1685,Monthly,940,Alexandria,VA,38.7999,-77.1072,1577358564
5668613488,1,1,USD,No,Thumbnail,Cats+Dogs,1099,Monthly,336,Tampa,FL,28.0076,-82.4792,1577358537
5668612105,1,2,USD,No,Thumbnail,Cats+Dogs,1630,Monthly,506,Nashville,TN,36.1370,-86.7830,1577358464
5668611976,1,1,USD,No,Thumbnail,Cats+Dogs,655,Monthly,661,Saint Louis,MO,38.6274,-90.3040,1577358457
5668611534,1,1,USD,No,Thumbnail,Cats+Dogs,1273,Monthly,788,Houston,TX,29.7714,-95.4343,1577358427
5668611436,1,1,USD,No,Thumbnail,Cats+Dogs,928,Monthly,722,North Richland Hills,TX,32.8582,-97.2357,1577358419
5668611261,1,1,USD,No,Thumbnail,Cats+Dogs,750,Monthly,690,Youngsville,NC,36.0249,-78.4646,1577358404
5668611218,1,1,USD,No,Thumbnail,Cats+Dogs,1076,Monthly,700,Durham,NC,35.9907,-78.9074,1577358401
5668610923,1,1,USD,No,Thumbnail,None,3952,Monthly,680,Boston,MA,42.3280,-71.0710,1577358372
5668610885,2,4,USD,No,Thumbnail,Cats+Dogs,1749,Monthly,2673,Richmond,TX,29.5884,-95.7531,1577358366
5668610835,2,3,USD,No,Thumbnail,Cats+Dogs,1299,Monthly,1604,Charlotte,NC,35.2016,-80.8124,1577358361
5668610715,2,3,USD,No,Thumbnail,Cats+Dogs,1549,Monthly,1806,Crosby,TX,29.9250,-95.0704,1577358349
5668610569,2,3,USD,No,Thumbnail,Cats+Dogs,1399,Monthly,1520,Houston,TX,29.7714,-95.4343,1577358337
5668610547,1,2,USD,No,Thumbnail,None,750,Monthly,800,Urbandale,IA,41.6251,-93.7375,1577358334
5668610405,1,1,USD,No,Thumbnail,None,1225,Monthly,776,San Antonio,TX,29.4624,-98.5253,1577358321
5668609848,1,1,USD,No,Thumbnail,Cats+Dogs,1324,Monthly,686,Chicago,IL,41.8625,-87.6825,1577358292
5668609759,1,1,USD,No,Thumbnail,None,805,Monthly,686,Houston,TX,29.7714,-95.4343,1577358288
5668609289,1,1,USD,No,Thumbnail,Cats+Dogs,1019,Monthly,777,Houston,TX,29.7714,-95.4343,1577358260
5668609212,1,1,USD,No,Thumbnail,Cats+Dogs,919,Monthly,635,Houston,TX,29.7714,-95.4343,1577358255
5668640238,1,1,USD,No,Thumbnail,Cats+Dogs,800,Monthly,832,Johnson City,TN,36.3317,-82.3837,1577360372
5668640192,2.5,2,USD,No,Thumbnail,Cats+Dogs,6000,Monthly,1270,Palo Alto,CA,37.4356,-122.1340,1577360368
5668640003,1,1,USD,No,Thumbnail,Cats,1895,Monthly,550,Redondo Beach,CA,33.8520,-118.3759,1577360355
5668639974,2,2,USD,No,Thumbnail,Cats+Dogs,2025,Monthly,960,Elizabeth,NJ,40.6623,-74.2087,1577360352
5668639667,1,1,USD,No,Thumbnail,Cats+Dogs,2199,Monthly,825,Valley Village,CA,34.1656,-118.3916,1577360331
5668639518,1,1,USD,No,Thumbnail,None,995,Monthly,632,Richmond,VA,37.5300,-77.4770,1577360320
5668639018,1,1,USD,No,Thumbnail,None,1495,Monthly,586,Seattle,WA,47.6160,-122.3275,1577360279
5668638100,1,1,USD,No,Thumbnail,Cats+Dogs,1300,Monthly,500,Ashland,OR,42.1583,-122.6338,1577360202
5668637946,1,1,USD,No,Thumbnail,Cats+Dogs,840,Monthly,465,Cincinnati,OH,39.1679,-84.4933,1577360191
5668637883,1,1,USD,No,Thumbnail,Cats+Dogs,1185,Monthly,650,Houston,TX,29.7714,-95.4343,1577360187
5668637740,1,2,USD,No,Thumbnail,None,2800,Monthly,648,Sunnyvale,CA,37.3695,-122.0241,1577360177
5668637703,2,3,USD,No,Thumbnail,Cats+Dogs,1795,Monthly,1895,Rowlett,TX,32.9079,-96.5532,1577360175
5668637580,4.5,3,USD,No,Thumbnail,Cats+Dogs,3950,Monthly,2280,Washington,DC,38.9118,-77.0132,1577360168
5668636985,1,1,USD,No,Thumbnail,Cats+Dogs,969,Monthly,668,Denton,TX,33.1993,-97.1268,1577360140
5668636864,1,1,USD,No,Thumbnail,None,835,Monthly,650,Murray,UT,40.6493,-111.8828,1577360136
5668636595,1,1,USD,No,Thumbnail,Cats+Dogs,985,Monthly,692,Austin,TX,30.3054,-97.7497,1577360122
5668636158,2,2,USD,No,Thumbnail,None,1500,Monthly,1144,Dallas,TX,32.8212,-96.7853,1577360090
5668636012,1,1,USD,No,Thumbnail,None,770,Monthly,540,Yakima,WA,46.5990,-120.5572,1577360080
5668635883,1,2,USD,No,Thumbnail,Cats+Dogs,1700,Monthly,600,Honolulu,HI,21.3155,-157.8379,1577360072
5668635564,1,1,USD,No,Thumbnail,Cats+Dogs,1650,Monthly,915,South Burlington,VT,44.4624,-73.1603,1577360050
5668635193,1,1,USD,No,Thumbnail,Cats+Dogs,815,Monthly,800,Savannah,GA,32.0245,-81.1067,1577360031
5668634993,2.5,2,USD,No,Thumbnail,Cats+Dogs,1075,Monthly,1400,Rogers,AR,36.3267,-94.0643,1577360019
5668634861,1,1,USD,No,Thumbnail,Cats,1275,Monthly,536,Seattle,WA,47.6160,-122.3275,1577360012
5668634743,0,1,USD,No,Thumbnail,Cats+Dogs,565,Monthly,725,Wichita Falls,TX,33.8994,-98.5280,1577360004
5668634394,1,1,USD,No,Thumbnail,Cats+Dogs,2600,Monthly,750,Huntington Beach,CA,33.6954,-118.0013,1577359981
5668633676,1,1,USD,No,Thumbnail,Cats,795,Monthly,700,Omaha,NE,41.2562,-96.0404,1577359924
5668633647,2,2,USD,No,Thumbnail,None,925,Monthly,1063,Minot,ND,48.2469,-101.3017,1577359923
5668633506,1,1,USD,No,Thumbnail,Cats,845,Monthly,800,Omaha,NE,41.2562,-96.0404,1577359915
5668633436,2,2,USD,No,Thumbnail,None,1745,Monthly,1246,Escondido,CA,33.1308,-117.0809,1577359912
5668633024,1,2,USD,No,Thumbnail,Cats+Dogs,1695,Monthly,850,Paoli,PA,40.0414,-75.4867,1577359884
5668632865,1,1,USD,No,Thumbnail,None,835,Monthly,776,Minot,ND,48.2469,-101.3017,1577359870
5668632809,2.5,3,USD,No,Thumbnail,Cats+Dogs,1645,Monthly,1562,Bismarck,ND,46.8013,-100.7562,1577359865
5668632550,1,1,USD,No,Thumbnail,None,1075,Monthly,700,Austin,TX,30.3054,-97.7497,1577359844
5668632480,1,1,USD,No,Thumbnail,None,1750,Monthly,588,Austin,TX,30.3054,-97.7497,1577359838
5668632469,1,1,USD,No,Thumbnail,None,830,Monthly,520,Austin,TX,30.3054,-97.7497,1577359837
5668632224,1,2,USD,No,Thumbnail,None,989,Monthly,441,Round Rock,TX,30.5118,-97.6873,1577359816
5668632114,1,1,USD,No,Thumbnail,None,1020,Monthly,570,Austin,TX,30.3054,-97.7497,1577359806
5668632020,1,1,USD,No,Thumbnail,None,1465,Monthly,846,Austin,TX,30.3054,-97.7497,1577359798
5668631652,1,2,USD,No,Thumbnail,None,1299,Monthly,611,Austin,TX,30.3054,-97.7497,1577359768
5668631570,1,1,USD,No,Thumbnail,None,1030,Monthly,657,Austin,TX,30.3054,-97.7497,1577359763
5668631326,1,1,USD,No,Thumbnail,None,1328,Monthly,572,Austin,TX,30.3054,-97.7497,1577359750
5668631105,1,1,USD,No,Thumbnail,None,850,Monthly,518,Austin,TX,30.3054,-97.7497,1577359736
5668631054,1,1,USD,No,Thumbnail,None,1455,Monthly,640,Austin,TX,30.3054,-97.7497,1577359733
5668630728,1,1,USD,No,Thumbnail,Cats+Dogs,2145,Monthly,804,Dallas,TX,32.8212,-96.7853,1577359714
5668630695,1,1,USD,No,Thumbnail,Cats+Dogs,1395,Monthly,672,Dallas,TX,32.8212,-96.7853,1577359712
5668630654,1,1,USD,No,Thumbnail,None,1000,Monthly,705,Austin,TX,30.3054,-97.7497,1577359709
5668630298,1,1,USD,No,Thumbnail,None,1421,Monthly,780,Austin,TX,30.3054,-97.7497,1577359684
5668630222,1,1,USD,No,Thumbnail,None,820,Monthly,563,Austin,TX,30.3054,-97.7497,1577359678
5668630184,1,1,USD,No,Thumbnail,Cats+Dogs,1149,Monthly,723,Tulsa,OK,36.1160,-95.9281,1577359675
5668630065,1,1,USD,No,Thumbnail,Cats+Dogs,645,Monthly,600,Glendale,AZ,33.5944,-112.1837,1577359667
5668629940,1,1,USD,No,Thumbnail,None,560,Monthly,670,Tulsa,OK,36.1160,-95.9281,1577359658
5668629883,2,2,USD,No,Thumbnail,Cats+Dogs,2390,Monthly,1325,Kansas City,MO,39.0744,-94.5521,1577359654
5668629794,2,2,USD,No,Thumbnail,Cats+Dogs,875,Monthly,1092,Minot,ND,48.2469,-101.3017,1577359647
5668629749,1,1,USD,No,Thumbnail,Cats+Dogs,1220,Monthly,675,San Antonio,TX,29.4624,-98.5253,1577359643
5668629723,1,2,USD,No,Thumbnail,None,870,Monthly,422,Austin,TX,30.3054,-97.7497,1577359640
5668629512,1,1,USD,No,Thumbnail,None,1050,Monthly,396,Austin,TX,30.3054,-97.7497,1577359621
5668629472,1,1,USD,No,Thumbnail,Cats+Dogs,975,Monthly,649,Dallas,TX,32.8212,-96.7853,1577359619
5668629245,2.5,4,USD,No,Thumbnail,Cats+Dogs,1695,Monthly,1738,Monroe,OH,39.4443,-84.3711,1577359603
5668629202,2,3,USD,No,Thumbnail,Dogs,1730,Monthly,1685,Arlington,TX,32.7025,-97.1196,1577359600
5668628950,2,3,USD,No,Thumbnail,None,950,Monthly,1100,Jacksonville,AL,33.8037,-85.7689,1577359582
5668628920,1,2,USD,No,Thumbnail,Cats+Dogs,1145,Monthly,912,Omaha,NE,41.2562,-96.0404,1577359580
5668628471,2,3,USD,No,Thumbnail,None,2895,Monthly,1246,Dublin,CA,37.7147,-121.9300,1577359547
5668628331,2,2,USD,No,Thumbnail,Cats+Dogs,850,Monthly,850,Oxford,AL,33.6091,-85.8370,1577359540
5668628039,2,3,USD,No,Thumbnail,None,1495,Monthly,1718,Louisville,KY,38.2009,-85.6999,1577359516
5668627914,3.5,4,USD,No,Thumbnail,Cats+Dogs,2950,Monthly,4075,Lenexa,KS,38.9329,-94.7538,1577359502
5668627538,1,2,USD,No,Thumbnail,Cats+Dogs,909,Monthly,894,Kansas City,MO,39.0744,-94.5521,1577359471
5668626994,1,3,USD,No,Thumbnail,None,2400,Monthly,1500,Seattle,WA,47.6160,-122.3275,1577359422
5668626862,2,3,USD,No,Thumbnail,None,3975,Monthly,1881,Fremont,CA,37.5444,-121.9820,1577359412
5668626780,2,4,USD,No,Thumbnail,Cats+Dogs,4000,Monthly,1932,Los Angeles,CA,34.0372,-118.2972,1577359403
5668626538,2.5,2,USD,No,Thumbnail,None,1450,Monthly,1365,Longwood,FL,28.7026,-81.3885,1577359380
5668626355,1.5,3,USD,No,Thumbnail,Dogs,975,Monthly,1534,Midwest City,OK,35.4622,-97.3764,1577359369
5668626061,1,1,USD,No,Thumbnail,None,1796,Monthly,452,Washington,DC,38.9118,-77.0132,1577359354
5668625680,1,2,USD,No,Thumbnail,Cats+Dogs,1216,Monthly,1023,Shorewood,WI,43.0834,-87.8861,1577359331
5668625547,1,4,USD,No,Thumbnail,Cats+Dogs,2075,Monthly,885,Chicago,IL,41.8625,-87.6825,1577359323
5668625411,1,1,USD,No,Thumbnail,None,676,Monthly,709,Dubuque,IA,42.5326,-90.6985,1577359312
5668624973,1,1,USD,No,Thumbnail,Cats+Dogs,1050,Monthly,748,Columbus,OH,39.9974,-82.9829,1577359283
5668624922,2,3,USD,No,Thumbnail,Cats+Dogs,1299,Monthly,1165,Davidson,NC,35.4796,-80.8231,1577359279
5668624917,2,3,USD,No,Thumbnail,Cats+Dogs,1425,Monthly,1704,Monroe,NC,34.9827,-80.5464,1577359278
5668624667,1,1,USD,No,Thumbnail,Cats+Dogs,759,Monthly,622,Baytown,TX,29.7864,-94.9631,1577359257
5668624606,1,1,USD,No,Thumbnail,Dogs,450,Monthly,579,Houston,TX,29.7714,-95.4343,1577359252
5668624434,1,2,USD,No,Thumbnail,Cats+Dogs,1350,Monthly,486,Chula Vista,CA,32.6197,-117.0226,1577359240
5668624228,1,1,USD,No,Thumbnail,Cats+Dogs,855,Monthly,780,Atlanta,GA,33.7848,-84.3922,1577359225
5668624138,2,3,USD,No,Thumbnail,Cats+Dogs,1299,Monthly,1540,Indianapolis,IN,39.7953,-86.1387,1577359218
5668623834,1,1,USD,No,Thumbnail,Cats+Dogs,925,Monthly,620,Kansas City,MO,39.0744,-94.5521,1577359198
5668623488,1,1,USD,No,Thumbnail,None,855,Monthly,662,San Antonio,TX,29.4624,-98.5253,1577359179
5668623261,1,1,USD,No,Thumbnail,Cats+Dogs,850,Monthly,935,Council Bluffs,IA,41.2600,-95.8358,1577359167
5668623189,1,1,USD,No,Thumbnail,Cats+Dogs,1010,Monthly,774,Omaha,NE,41.2562,-96.0404,1577359162
5668623167,2,2,USD,No,Thumbnail,Cats+Dogs,1500,Monthly,1400,Meriden,CT,41.5346,-72.8083,1577359160
5668622846,2,3,USD,No,Thumbnail,Cats+Dogs,1299,Monthly,1950,Columbia,SC,34.0505,-81.0098,1577359140
5668622478,1,2,USD,No,Thumbnail,Cats+Dogs,1514,Monthly,945,Oviedo,FL,28.6495,-81.2024,1577359122
5668621929,1,1,USD,No,Thumbnail,None,840,Monthly,775,Buffalo,NY,42.9112,-78.8171,1577359091
5668621816,1,1,USD,No,Thumbnail,Cats+Dogs,891,Monthly,812,Johnston,IA,41.6828,-93.7077,1577359085
5668621395,1,3,USD,No,Thumbnail,None,1050,Monthly,760,Champaign,IL,40.1145,-88.2723,1577359057
5668621269,1,1,USD,No,Thumbnail,None,710,Monthly,625,Bloomington,IN,39.1471,-86.5136,1577359048
5668620890,1,3,USD,No,Thumbnail,Cats+Dogs,565,Monthly,510,Springfield,MO,37.1892,-93.2908,1577359027
5668620515,1,1,USD,No,Thumbnail,Cats+Dogs,1475,Monthly,470,Manchester,NH,42.9833,-71.4574,1577359003
5668620506,1,4,USD,No,Thumbnail,Cats+Dogs,1135,Monthly,523,Nashua,NH,42.7527,-71.4854,1577359002
5668620461,2,3,USD,No,Thumbnail,Cats+Dogs,1360,Monthly,950,Anchorage,AK,61.1521,-149.8508,1577359000
5668620300,3,3,USD,No,Thumbnail,Cats,1665,Monthly,1395,Greenville,NC,35.6066,-77.3928,1577358989
5668620017,1,2,USD,No,Thumbnail,Cats+Dogs,900,Monthly,475,Cedar Falls,IA,42.5286,-92.4509,1577358970
5668619630,2,3,USD,No,Thumbnail,Cats+Dogs,1549,Monthly,2020,Spring Hill,FL,28.4730,-82.5474,1577358940
